{"type": "FeatureCollection", "features": [{"type":"Feature","geometry":{"type":"Point","coordinates":[72.9,20.9667]},"properties":{"country":"India","city_station":"Surat","pm_2_5":41,"latitude":"20.9667","longitude":"72.9","iso2":"IN","cartodb_id":1,"created_at":"2014-05-19T13:14:05Z","updated_at":"2014-05-30T01:06:11Z"}},{"type":"Feature","geometry":{"type":"Point","coordinates":[11.55,45.55]},"properties":{"country":"Italy","city_station":"Vicenza","pm_2_5":31,"latitude":"45.55","longitude":"11.55","iso2":"IT","cartodb_id":2,"created_at":"2014-05-19T13:14:05Z","updated_at":"2014-05-30T01:06:11Z"}},{"type":"Feature","geometry":{"type":"Point","coordinates":[78.1667,11.65]},"properties":{"country":"India","city_station":"Salem","pm_2_5":27,"latitude":"11.65","longitude":"78.1667","iso2":"IN","cartodb_id":3,"created_at":"2014-05-19T13:14:05Z","updated_at":"2014-05-30T01:06:11Z"}},{"type":"Feature","geometry":{"type":"Point","coordinates":[34.675508,31.639497]},"properties":{"country":"Israel","city_station":"Kibbutz Sde Yoav","pm_2_5":24,"latitude":"31.63949722","longitude":"34.67550833","iso2":"IL","cartodb_id":4,"created_at":"2014-05-19T13:14:05Z","updated_at":"2014-05-30T01:06:11Z"}},{"type":"Feature","geometry":{"type":"Point","coordinates":[12.9167,43.9]},"properties":{"country":"Italy","city_station":"Pesaro","pm_2_5":20,"latitude":"43.9","longitude":"12.9167","iso2":"IT","cartodb_id":5,"created_at":"2014-05-19T13:14:05Z","updated_at":"2014-05-30T01:06:11Z"}},{"type":"Feature","geometry":{"type":"Point","coordinates":[40.5219,41.0208]},"properties":{"country":"Turkey","city_station":"Rize","pm_2_5":19,"latitude":"41.0208","longitude":"40.5219","iso2":"TR","cartodb_id":6,"created_at":"2014-05-19T13:14:05Z","updated_at":"2014-05-30T01:06:11Z"}},{"type":"Feature","geometry":{"type":"Point","coordinates":[127.15,37.6]},"properties":{"country":"South Korea","city_station":"Guri","pm_2_5":23,"latitude":"37.6","longitude":"127.15","iso2":"KR","cartodb_id":7,"created_at":"2014-05-19T13:14:05Z","updated_at":"2014-05-30T01:06:11Z"}},{"type":"Feature","geometry":{"type":"Point","coordinates":[5.1191,52.0938]},"properties":{"country":"Netherlands","city_station":"Utrecht","pm_2_5":18,"latitude":"52.0938","longitude":"5.1191","iso2":"NL","cartodb_id":8,"created_at":"2014-05-19T13:14:05Z","updated_at":"2014-05-30T01:06:11Z"}},{"type":"Feature","geometry":{"type":"Point","coordinates":[10,48.4]},"properties":{"country":"Germany","city_station":"Ulm","pm_2_5":15,"latitude":"48.4","longitude":"10","iso2":"DE","cartodb_id":9,"created_at":"2014-05-19T13:14:05Z","updated_at":"2014-05-30T01:06:11Z"}},{"type":"Feature","geometry":{"type":"Point","coordinates":[76.6,27.5667]},"properties":{"country":"India","city_station":"Alwar","pm_2_5":38,"latitude":"27.5667","longitude":"76.6","iso2":"IN","cartodb_id":10,"created_at":"2014-05-19T13:14:05Z","updated_at":"2014-05-30T01:06:11Z"}},{"type":"Feature","geometry":{"type":"Point","coordinates":[-91.1703,30.4386]},"properties":{"country":"United States of America","city_station":"Baton Rouge","pm_2_5":11,"latitude":"30.4386","longitude":"-91.1703","iso2":"US","cartodb_id":11,"created_at":"2014-05-19T13:14:05Z","updated_at":"2014-05-30T01:06:11Z"}},{"type":"Feature","geometry":{"type":"Point","coordinates":[-121.6259,36.6478]},"properties":{"country":"United States of America","city_station":"Salinas","pm_2_5":6,"latitude":"36.6478","longitude":"-121.6259","iso2":"US","cartodb_id":12,"created_at":"2014-05-19T13:14:05Z","updated_at":"2014-05-30T01:06:11Z"}},{"type":"Feature","geometry":{"type":"Point","coordinates":[121.4,37.5333]},"properties":{"country":"China","city_station":"Yantai","pm_2_5":37,"latitude":"37.5333","longitude":"121.4","iso2":"CN","cartodb_id":13,"created_at":"2014-05-19T13:14:05Z","updated_at":"2014-05-30T01:06:11Z"}},{"type":"Feature","geometry":{"type":"Point","coordinates":[-84.0833,9.9333]},"properties":{"country":"Costa Rica","city_station":"San Jose","pm_2_5":15,"latitude":"9.9333","longitude":"-84.0833","iso2":"CR","cartodb_id":14,"created_at":"2014-05-19T13:14:05Z","updated_at":"2014-05-30T01:06:11Z"}},{"type":"Feature","geometry":{"type":"Point","coordinates":[-4.4862,48.3908]},"properties":{"country":"France","city_station":"Brest","pm_2_5":16,"latitude":"48.3908","longitude":"-4.4862","iso2":"FR","cartodb_id":15,"created_at":"2014-05-19T13:14:05Z","updated_at":"2014-05-30T01:06:11Z"}},{"type":"Feature","geometry":{"type":"Point","coordinates":[-118.3114,37.506]},"properties":{"country":"United States of America","city_station":"Bishop","pm_2_5":6,"latitude":"37.506","longitude":"-118.3114","iso2":"US","cartodb_id":16,"created_at":"2014-05-19T13:14:05Z","updated_at":"2014-05-30T01:06:11Z"}},{"type":"Feature","geometry":{"type":"Point","coordinates":[-0.483056,38.345278]},"properties":{"country":"Spain","city_station":"Alicante","pm_2_5":11,"latitude":"38.345278","longitude":"-0.483056","iso2":"ES","cartodb_id":17,"created_at":"2014-05-19T13:14:05Z","updated_at":"2014-05-30T01:06:11Z"}},{"type":"Feature","geometry":{"type":"Point","coordinates":[-73.757222,42.6525]},"properties":{"country":"United States of America","city_station":"Albany-NY","pm_2_5":8,"latitude":"42.6525","longitude":"-73.757222","iso2":"US","cartodb_id":18,"created_at":"2014-05-19T13:14:05Z","updated_at":"2014-05-30T01:06:11Z"}},{"type":"Feature","geometry":{"type":"Point","coordinates":[-85.2456,35.0671]},"properties":{"country":"United States of America","city_station":"Chattanooga","pm_2_5":11,"latitude":"35.0671","longitude":"-85.2456","iso2":"US","cartodb_id":19,"created_at":"2014-05-19T13:14:05Z","updated_at":"2014-05-30T01:06:11Z"}},{"type":"Feature","geometry":{"type":"Point","coordinates":[-74.5245,40.4981]},"properties":{"country":"United States of America","city_station":"Somerset","pm_2_5":10,"latitude":"40.4981","longitude":"-74.5245","iso2":"US","cartodb_id":20,"created_at":"2014-05-19T13:14:05Z","updated_at":"2014-05-30T01:06:11Z"}},{"type":"Feature","geometry":{"type":"Point","coordinates":[33.3667,35.1667]},"properties":{"country":"Cyprus","city_station":"Lefkosia","pm_2_5":24,"latitude":"35.1667","longitude":"33.3667","iso2":"CY","cartodb_id":21,"created_at":"2014-05-19T13:14:05Z","updated_at":"2014-05-30T01:06:11Z"}},{"type":"Feature","geometry":{"type":"Point","coordinates":[94.9028,27.4817]},"properties":{"country":"India","city_station":"Dibrugarh","pm_2_5":25,"latitude":"27.4817","longitude":"94.9028","iso2":"IN","cartodb_id":22,"created_at":"2014-05-19T13:14:05Z","updated_at":"2014-05-30T01:06:11Z"}},{"type":"Feature","geometry":{"type":"Point","coordinates":[-66.0953,45.2308]},"properties":{"country":"Canada","city_station":"Saint John","pm_2_5":8,"latitude":"45.2308","longitude":"-66.0953","iso2":"CA","cartodb_id":23,"created_at":"2014-05-19T13:14:05Z","updated_at":"2014-05-30T01:06:11Z"}},{"type":"Feature","geometry":{"type":"Point","coordinates":[3.5279,50.3571]},"properties":{"country":"France","city_station":"Valenciennes","pm_2_5":20,"latitude":"50.3571","longitude":"3.5279","iso2":"FR","cartodb_id":24,"created_at":"2014-05-19T13:14:05Z","updated_at":"2014-05-30T01:06:11Z"}},{"type":"Feature","geometry":{"type":"Point","coordinates":[-97.4435,27.7479]},"properties":{"country":"United States of America","city_station":"Corpus Christi","pm_2_5":11,"latitude":"27.7479","longitude":"-97.4435","iso2":"US","cartodb_id":26,"created_at":"2014-05-19T13:14:05Z","updated_at":"2014-05-30T01:06:11Z"}},{"type":"Feature","geometry":{"type":"Point","coordinates":[-88.7117,43.372]},"properties":{"country":"United States of America","city_station":"Juneau","pm_2_5":6,"latitude":"43.372","longitude":"-88.7117","iso2":"US","cartodb_id":27,"created_at":"2014-05-19T13:14:05Z","updated_at":"2014-05-30T01:06:11Z"}},{"type":"Feature","geometry":{"type":"Point","coordinates":[37.8789,40.9847]},"properties":{"country":"Turkey","city_station":"Ordu","pm_2_5":41,"latitude":"40.9847","longitude":"37.8789","iso2":"TR","cartodb_id":28,"created_at":"2014-05-19T13:14:05Z","updated_at":"2014-05-30T01:06:11Z"}},{"type":"Feature","geometry":{"type":"Point","coordinates":[-82.423611,38.420833]},"properties":{"country":"United States of America","city_station":"Huntington","pm_2_5":11,"latitude":"38.420833","longitude":"-82.423611","iso2":"US","cartodb_id":29,"created_at":"2014-05-19T13:14:05Z","updated_at":"2014-05-30T01:06:11Z"}},{"type":"Feature","geometry":{"type":"Point","coordinates":[112.2633,26.2817]},"properties":{"country":"China","city_station":"Yangquan","pm_2_5":36,"latitude":"26.2817","longitude":"112.2633","iso2":"CN","cartodb_id":30,"created_at":"2014-05-19T13:14:05Z","updated_at":"2014-05-30T01:06:11Z"}},{"type":"Feature","geometry":{"type":"Point","coordinates":[11.3333,44.4833]},"properties":{"country":"Italy","city_station":"Bologna","pm_2_5":20,"latitude":"44.4833","longitude":"11.3333","iso2":"IT","cartodb_id":31,"created_at":"2014-05-19T13:14:05Z","updated_at":"2014-05-30T01:06:11Z"}},{"type":"Feature","geometry":{"type":"Point","coordinates":[11.3167,50.9833]},"properties":{"country":"Germany","city_station":"Weimar","pm_2_5":16,"latitude":"50.9833","longitude":"11.3167","iso2":"DE","cartodb_id":32,"created_at":"2014-05-19T13:14:05Z","updated_at":"2014-05-30T01:06:11Z"}},{"type":"Feature","geometry":{"type":"Point","coordinates":[-82.55,36.533333]},"properties":{"country":"United States of America","city_station":"Kingsport","pm_2_5":9,"latitude":"36.533333","longitude":"-82.55","iso2":"US","cartodb_id":33,"created_at":"2014-05-19T13:14:05Z","updated_at":"2014-05-30T01:06:11Z"}},{"type":"Feature","geometry":{"type":"Point","coordinates":[8.5833,53.55]},"properties":{"country":"Germany","city_station":"Bremerhaven","pm_2_5":16,"latitude":"53.55","longitude":"8.5833","iso2":"DE","cartodb_id":34,"created_at":"2014-05-19T13:14:05Z","updated_at":"2014-05-30T01:06:11Z"}},{"type":"Feature","geometry":{"type":"Point","coordinates":[4.4167,51.2167]},"properties":{"country":"Belgium","city_station":"Antwerpen","pm_2_5":20,"latitude":"51.2167","longitude":"4.4167","iso2":"BE","cartodb_id":35,"created_at":"2014-05-19T13:14:05Z","updated_at":"2014-05-30T01:06:11Z"}},{"type":"Feature","geometry":{"type":"Point","coordinates":[-3.9291,38.9863]},"properties":{"country":"Spain","city_station":"Ciudad Real","pm_2_5":11,"latitude":"38.9863","longitude":"-3.9291","iso2":"ES","cartodb_id":36,"created_at":"2014-05-19T13:14:05Z","updated_at":"2014-05-30T01:06:11Z"}},{"type":"Feature","geometry":{"type":"Point","coordinates":[7.5733,47.5584]},"properties":{"country":"Switzerland","city_station":"Basel","pm_2_5":15,"latitude":"47.5584","longitude":"7.5733","iso2":"CH","cartodb_id":37,"created_at":"2014-05-19T13:14:05Z","updated_at":"2014-05-30T01:06:11Z"}},{"type":"Feature","geometry":{"type":"Point","coordinates":[8.435278,49.481111]},"properties":{"country":"Germany","city_station":"Ludwigshafen","pm_2_5":17,"latitude":"49.481111","longitude":"8.435278","iso2":"DE","cartodb_id":38,"created_at":"2014-05-19T13:14:05Z","updated_at":"2014-05-30T01:06:11Z"}},{"type":"Feature","geometry":{"type":"Point","coordinates":[-2.7167,53.7667]},"properties":{"country":"United Kingdom","city_station":"Preston","pm_2_5":11,"latitude":"53.7667","longitude":"-2.7167","iso2":"GB","cartodb_id":39,"created_at":"2014-05-19T13:14:05Z","updated_at":"2014-05-30T01:06:11Z"}},{"type":"Feature","geometry":{"type":"Point","coordinates":[-78.6167,-1.25]},"properties":{"country":"Ecuador","city_station":"Ambato","pm_2_5":9,"latitude":"-1.25","longitude":"-78.6167","iso2":"EC","cartodb_id":40,"created_at":"2014-05-19T13:14:05Z","updated_at":"2014-05-30T01:06:11Z"}},{"type":"Feature","geometry":{"type":"Point","coordinates":[107.359,34.3659]},"properties":{"country":"China","city_station":"Baoji","pm_2_5":45,"latitude":"34.3659","longitude":"107.359","iso2":"CN","cartodb_id":41,"created_at":"2014-05-19T13:14:05Z","updated_at":"2014-05-30T01:06:11Z"}},{"type":"Feature","geometry":{"type":"Point","coordinates":[-94.566,39.1068]},"properties":{"country":"United States of America","city_station":"Kansas City","pm_2_5":15,"latitude":"39.1068","longitude":"-94.566","iso2":"US","cartodb_id":42,"created_at":"2014-05-19T13:14:05Z","updated_at":"2014-05-30T01:06:11Z"}},{"type":"Feature","geometry":{"type":"Point","coordinates":[-86.0058,36.5278]},"properties":{"country":"United States of America","city_station":"Lafayette-TN","pm_2_5":14,"latitude":"36.5278","longitude":"-86.0058","iso2":"US","cartodb_id":43,"created_at":"2014-05-19T13:14:05Z","updated_at":"2014-05-30T01:06:11Z"}},{"type":"Feature","geometry":{"type":"Point","coordinates":[114.188,22.267]},"properties":{"country":"China","city_station":"Hong Kong","pm_2_5":45,"latitude":"22.267","longitude":"114.188","iso2":"CN","cartodb_id":44,"created_at":"2014-05-19T13:14:05Z","updated_at":"2014-05-30T01:06:11Z"}},{"type":"Feature","geometry":{"type":"Point","coordinates":[113.0442,36.0458]},"properties":{"country":"China","city_station":"Changzhi","pm_2_5":38,"latitude":"36.0458","longitude":"113.0442","iso2":"CN","cartodb_id":45,"created_at":"2014-05-19T13:14:05Z","updated_at":"2014-05-30T01:06:11Z"}},{"type":"Feature","geometry":{"type":"Point","coordinates":[114.2734,30.5801]},"properties":{"country":"China","city_station":"Wuhan","pm_2_5":50,"latitude":"30.5801","longitude":"114.2734","iso2":"CN","cartodb_id":46,"created_at":"2014-05-19T13:14:05Z","updated_at":"2014-05-30T01:06:11Z"}},{"type":"Feature","geometry":{"type":"Point","coordinates":[-100.3167,25.6667]},"properties":{"country":"Mexico","city_station":"Monterrey","pm_2_5":36,"latitude":"25.6667","longitude":"-100.3167","iso2":"MX","cartodb_id":47,"created_at":"2014-05-19T13:14:05Z","updated_at":"2014-05-30T01:06:11Z"}},{"type":"Feature","geometry":{"type":"Point","coordinates":[-105.0792,38.3399]},"properties":{"country":"United States of America","city_station":"Florence-SC","pm_2_5":9,"latitude":"38.3399","longitude":"-105.0792","iso2":"US","cartodb_id":48,"created_at":"2014-05-19T13:14:05Z","updated_at":"2014-05-30T01:06:11Z"}},{"type":"Feature","geometry":{"type":"Point","coordinates":[8.6333,45.4667]},"properties":{"country":"Italy","city_station":"Novara","pm_2_5":26,"latitude":"45.4667","longitude":"8.6333","iso2":"IT","cartodb_id":49,"created_at":"2014-05-19T13:14:05Z","updated_at":"2014-05-30T01:06:11Z"}},{"type":"Feature","geometry":{"type":"Point","coordinates":[-86.1,42.783333]},"properties":{"country":"United States of America","city_station":"Holland","pm_2_5":9,"latitude":"42.783333","longitude":"-86.1","iso2":"US","cartodb_id":50,"created_at":"2014-05-19T13:14:05Z","updated_at":"2014-05-30T01:06:11Z"}},{"type":"Feature","geometry":{"type":"Point","coordinates":[118.7778,32.0617]},"properties":{"country":"China","city_station":"Nanjing","pm_2_5":52,"latitude":"32.0617","longitude":"118.7778","iso2":"CN","cartodb_id":51,"created_at":"2014-05-19T13:14:05Z","updated_at":"2014-05-30T01:06:11Z"}},{"type":"Feature","geometry":{"type":"Point","coordinates":[37.0161,39.7483]},"properties":{"country":"Turkey","city_station":"Sivas","pm_2_5":32,"latitude":"39.7483","longitude":"37.0161","iso2":"TR","cartodb_id":52,"created_at":"2014-05-19T13:14:05Z","updated_at":"2014-05-30T01:06:11Z"}},{"type":"Feature","geometry":{"type":"Point","coordinates":[4.316667,52.083333]},"properties":{"country":"Netherlands","city_station":"The Hague","pm_2_5":16,"latitude":"52.083333","longitude":"4.316667","iso2":"NL","cartodb_id":53,"created_at":"2014-05-19T13:14:05Z","updated_at":"2014-05-30T01:06:11Z"}},{"type":"Feature","geometry":{"type":"Point","coordinates":[116.3883,39.9289]},"properties":{"country":"China","city_station":"Beijing","pm_2_5":56,"latitude":"39.9289","longitude":"116.3883","iso2":"CN","cartodb_id":54,"created_at":"2014-05-19T13:14:05Z","updated_at":"2014-05-30T01:06:11Z"}},{"type":"Feature","geometry":{"type":"Point","coordinates":[-120.6642,44.1066]},"properties":{"country":"United States of America","city_station":"Prineville","pm_2_5":9,"latitude":"44.1066","longitude":"-120.6642","iso2":"US","cartodb_id":55,"created_at":"2014-05-19T13:14:05Z","updated_at":"2014-05-30T01:06:11Z"}},{"type":"Feature","geometry":{"type":"Point","coordinates":[78.0167,27.1833]},"properties":{"country":"India","city_station":"Agra","pm_2_5":88,"latitude":"27.1833","longitude":"78.0167","iso2":"IN","cartodb_id":56,"created_at":"2014-05-19T13:14:05Z","updated_at":"2014-05-30T01:06:11Z"}},{"type":"Feature","geometry":{"type":"Point","coordinates":[-114.1213,46.9846]},"properties":{"country":"United States of America","city_station":"Missoula","pm_2_5":12,"latitude":"46.9846","longitude":"-114.1213","iso2":"US","cartodb_id":57,"created_at":"2014-05-19T13:14:05Z","updated_at":"2014-05-30T01:06:11Z"}},{"type":"Feature","geometry":{"type":"Point","coordinates":[-1.25,51.75]},"properties":{"country":"United Kingdom","city_station":"Oxford","pm_2_5":12,"latitude":"51.75","longitude":"-1.25","iso2":"GB","cartodb_id":58,"created_at":"2014-05-19T13:14:05Z","updated_at":"2014-05-30T01:06:11Z"}},{"type":"Feature","geometry":{"type":"Point","coordinates":[-157.8389,21.3209]},"properties":{"country":"United States of America","city_station":"Honolulu","pm_2_5":7,"latitude":"21.3209","longitude":"-157.8389","iso2":"US","cartodb_id":59,"created_at":"2014-05-19T13:14:05Z","updated_at":"2014-05-30T01:06:11Z"}},{"type":"Feature","geometry":{"type":"Point","coordinates":[-79.4456,36.0897]},"properties":{"country":"United States of America","city_station":"Burlington-NC","pm_2_5":9,"latitude":"36.0897","longitude":"-79.4456","iso2":"US","cartodb_id":60,"created_at":"2014-05-19T13:14:05Z","updated_at":"2014-05-30T01:06:11Z"}},{"type":"Feature","geometry":{"type":"Point","coordinates":[127.4897,36.6372]},"properties":{"country":"South Korea","city_station":"Cheongju","pm_2_5":30,"latitude":"36.6372","longitude":"127.4897","iso2":"KR","cartodb_id":61,"created_at":"2014-05-19T13:14:05Z","updated_at":"2014-05-30T01:06:11Z"}},{"type":"Feature","geometry":{"type":"Point","coordinates":[-4.832778,39.958333]},"properties":{"country":"Spain","city_station":"Talavera de la Reina","pm_2_5":12,"latitude":"39.958333","longitude":"-4.832778","iso2":"ES","cartodb_id":62,"created_at":"2014-05-19T13:14:05Z","updated_at":"2014-05-30T01:06:11Z"}},{"type":"Feature","geometry":{"type":"Point","coordinates":[-2.1,57.15]},"properties":{"country":"United Kingdom","city_station":"Aberdeen","pm_2_5":8,"latitude":"57.15","longitude":"-2.1","iso2":"GB","cartodb_id":63,"created_at":"2014-05-19T13:14:05Z","updated_at":"2014-05-30T01:06:11Z"}},{"type":"Feature","geometry":{"type":"Point","coordinates":[81.85,25.45]},"properties":{"country":"India","city_station":"Allahabad","pm_2_5":88,"latitude":"25.45","longitude":"81.85","iso2":"IN","cartodb_id":64,"created_at":"2014-05-19T13:14:05Z","updated_at":"2014-05-30T01:06:11Z"}},{"type":"Feature","geometry":{"type":"Point","coordinates":[118.4,30.7083]},"properties":{"country":"China","city_station":"Taiyuan","pm_2_5":41,"latitude":"30.7083","longitude":"118.4","iso2":"CN","cartodb_id":65,"created_at":"2014-05-19T13:14:05Z","updated_at":"2014-05-30T01:06:11Z"}},{"type":"Feature","geometry":{"type":"Point","coordinates":[-79.4526,44.058]},"properties":{"country":"Canada","city_station":"Newmarket","pm_2_5":7,"latitude":"44.058","longitude":"-79.4526","iso2":"CA","cartodb_id":66,"created_at":"2014-05-19T13:14:05Z","updated_at":"2014-05-30T01:06:11Z"}},{"type":"Feature","geometry":{"type":"Point","coordinates":[-122.7667,53.9167]},"properties":{"country":"Canada","city_station":"Prince George","pm_2_5":6,"latitude":"53.9167","longitude":"-122.7667","iso2":"CA","cartodb_id":67,"created_at":"2014-05-19T13:14:05Z","updated_at":"2014-05-30T01:06:11Z"}},{"type":"Feature","geometry":{"type":"Point","coordinates":[-85.8586,42.5602]},"properties":{"country":"United States of America","city_station":"Allegan","pm_2_5":9,"latitude":"42.5602","longitude":"-85.8586","iso2":"US","cartodb_id":68,"created_at":"2014-05-19T13:14:05Z","updated_at":"2014-05-30T01:06:11Z"}},{"type":"Feature","geometry":{"type":"Point","coordinates":[34.0254,38.3725]},"properties":{"country":"Turkey","city_station":"Aksaray","pm_2_5":47,"latitude":"38.3725","longitude":"34.0254","iso2":"TR","cartodb_id":69,"created_at":"2014-05-19T13:14:05Z","updated_at":"2014-05-30T01:06:11Z"}},{"type":"Feature","geometry":{"type":"Point","coordinates":[111.6783,29.0464]},"properties":{"country":"China","city_station":"Changde","pm_2_5":42,"latitude":"29.0464","longitude":"111.6783","iso2":"CN","cartodb_id":70,"created_at":"2014-05-19T13:14:05Z","updated_at":"2014-05-30T01:06:11Z"}},{"type":"Feature","geometry":{"type":"Point","coordinates":[39.477778,40.459722]},"properties":{"country":"Turkey","city_station":"Gumushane","pm_2_5":40,"latitude":"40.459722","longitude":"39.477778","iso2":"TR","cartodb_id":71,"created_at":"2014-05-19T13:14:05Z","updated_at":"2014-05-30T01:06:11Z"}},{"type":"Feature","geometry":{"type":"Point","coordinates":[92.8,26.6333]},"properties":{"country":"India","city_station":"Tezpur","pm_2_5":30,"latitude":"26.6333","longitude":"92.8","iso2":"IN","cartodb_id":72,"created_at":"2014-05-19T13:14:05Z","updated_at":"2014-05-30T01:06:11Z"}},{"type":"Feature","geometry":{"type":"Point","coordinates":[-79.2064,37.344]},"properties":{"country":"United States of America","city_station":"Lynchburg","pm_2_5":8,"latitude":"37.344","longitude":"-79.2064","iso2":"US","cartodb_id":73,"created_at":"2014-05-19T13:14:05Z","updated_at":"2014-05-30T01:06:11Z"}},{"type":"Feature","geometry":{"type":"Point","coordinates":[-84.4625,35.977]},"properties":{"country":"United States of America","city_station":"Harriman","pm_2_5":13,"latitude":"35.977","longitude":"-84.4625","iso2":"US","cartodb_id":74,"created_at":"2014-05-19T13:14:05Z","updated_at":"2014-05-30T01:06:11Z"}},{"type":"Feature","geometry":{"type":"Point","coordinates":[-84.1446,40.7331]},"properties":{"country":"United States of America","city_station":"Lima-US","pm_2_5":10,"latitude":"40.7331","longitude":"-84.1446","iso2":"US","cartodb_id":75,"created_at":"2014-05-19T13:14:05Z","updated_at":"2014-05-30T01:06:11Z"}},{"type":"Feature","geometry":{"type":"Point","coordinates":[78.1333,8.7833]},"properties":{"country":"India","city_station":"Thoothukudi","pm_2_5":40,"latitude":"8.7833","longitude":"78.1333","iso2":"IN","cartodb_id":76,"created_at":"2014-05-19T13:14:05Z","updated_at":"2014-05-30T01:06:11Z"}},{"type":"Feature","geometry":{"type":"Point","coordinates":[-80.9667,46.5]},"properties":{"country":"Canada","city_station":"Sudbury","pm_2_5":5,"latitude":"46.5","longitude":"-80.9667","iso2":"CA","cartodb_id":77,"created_at":"2014-05-19T13:14:05Z","updated_at":"2014-05-30T01:06:11Z"}},{"type":"Feature","geometry":{"type":"Point","coordinates":[144.9634,-37.8139]},"properties":{"country":"Australia","city_station":"Melbourne","pm_2_5":5,"latitude":"-37.8139","longitude":"144.9634","iso2":"AU","cartodb_id":78,"created_at":"2014-05-19T13:14:05Z","updated_at":"2014-05-30T01:06:11Z"}},{"type":"Feature","geometry":{"type":"Point","coordinates":[19.0833,47.5]},"properties":{"country":"Hungary","city_station":"Budapest","pm_2_5":27,"latitude":"47.5","longitude":"19.0833","iso2":"HU","cartodb_id":79,"created_at":"2014-05-19T13:14:05Z","updated_at":"2014-05-30T01:06:11Z"}},{"type":"Feature","geometry":{"type":"Point","coordinates":[5.9417,43.1177]},"properties":{"country":"France","city_station":"Toulon","pm_2_5":17,"latitude":"43.1177","longitude":"5.9417","iso2":"FR","cartodb_id":80,"created_at":"2014-05-19T13:14:05Z","updated_at":"2014-05-30T01:06:11Z"}},{"type":"Feature","geometry":{"type":"Point","coordinates":[-87.955833,43.052222]},"properties":{"country":"United States of America","city_station":"Milwaukee","pm_2_5":11,"latitude":"43.052222","longitude":"-87.955833","iso2":"US","cartodb_id":81,"created_at":"2014-05-19T13:14:05Z","updated_at":"2014-05-30T01:06:11Z"}},{"type":"Feature","geometry":{"type":"Point","coordinates":[21,52.25]},"properties":{"country":"Poland","city_station":"Warszawa","pm_2_5":26,"latitude":"52.25","longitude":"21","iso2":"PL","cartodb_id":82,"created_at":"2014-05-19T13:14:05Z","updated_at":"2014-05-30T01:06:11Z"}},{"type":"Feature","geometry":{"type":"Point","coordinates":[100.5951,7.1988]},"properties":{"country":"Thailand","city_station":"Songkhla","pm_2_5":19,"latitude":"7.1988","longitude":"100.5951","iso2":"TH","cartodb_id":83,"created_at":"2014-05-19T13:14:05Z","updated_at":"2014-05-30T01:06:11Z"}},{"type":"Feature","geometry":{"type":"Point","coordinates":[-79.933333,32.783333]},"properties":{"country":"United States of America","city_station":"Charleston-SC","pm_2_5":10,"latitude":"32.783333","longitude":"-79.933333","iso2":"US","cartodb_id":84,"created_at":"2014-05-19T13:14:05Z","updated_at":"2014-05-30T01:06:11Z"}},{"type":"Feature","geometry":{"type":"Point","coordinates":[-104.6652,38.0934]},"properties":{"country":"United States of America","city_station":"Pueblo","pm_2_5":7,"latitude":"38.0934","longitude":"-104.6652","iso2":"US","cartodb_id":85,"created_at":"2014-05-19T13:14:05Z","updated_at":"2014-05-30T01:06:11Z"}},{"type":"Feature","geometry":{"type":"Point","coordinates":[-5.9333,54.5833]},"properties":{"country":"United Kingdom","city_station":"Belfast","pm_2_5":14,"latitude":"54.5833","longitude":"-5.9333","iso2":"GB","cartodb_id":86,"created_at":"2014-05-19T13:14:05Z","updated_at":"2014-05-30T01:06:11Z"}},{"type":"Feature","geometry":{"type":"Point","coordinates":[-92.0332,30.1605]},"properties":{"country":"United States of America","city_station":"Lafayette-LA","pm_2_5":11,"latitude":"30.1605","longitude":"-92.0332","iso2":"US","cartodb_id":87,"created_at":"2014-05-19T13:14:05Z","updated_at":"2014-05-30T01:06:11Z"}},{"type":"Feature","geometry":{"type":"Point","coordinates":[-87.0434,37.7555]},"properties":{"country":"United States of America","city_station":"Owensboro","pm_2_5":11,"latitude":"37.7555","longitude":"-87.0434","iso2":"US","cartodb_id":88,"created_at":"2014-05-19T13:14:05Z","updated_at":"2014-05-30T01:06:11Z"}},{"type":"Feature","geometry":{"type":"Point","coordinates":[-77.45,46.0167]},"properties":{"country":"Canada","city_station":"Chalk River","pm_2_5":4,"latitude":"46.0167","longitude":"-77.45","iso2":"CA","cartodb_id":89,"created_at":"2014-05-19T13:14:05Z","updated_at":"2014-05-30T01:06:11Z"}},{"type":"Feature","geometry":{"type":"Point","coordinates":[0.704,47.3948]},"properties":{"country":"France","city_station":"Tours","pm_2_5":17,"latitude":"47.3948","longitude":"0.704","iso2":"FR","cartodb_id":90,"created_at":"2014-05-19T13:14:05Z","updated_at":"2014-05-30T01:06:11Z"}},{"type":"Feature","geometry":{"type":"Point","coordinates":[-122.3548,40.4458]},"properties":{"country":"United States of America","city_station":"Anderson","pm_2_5":11,"latitude":"40.4458","longitude":"-122.3548","iso2":"US","cartodb_id":91,"created_at":"2014-05-19T13:14:05Z","updated_at":"2014-05-30T01:06:11Z"}},{"type":"Feature","geometry":{"type":"Point","coordinates":[123.4328,41.7922]},"properties":{"country":"China","city_station":"Shenyang","pm_2_5":46,"latitude":"41.7922","longitude":"123.4328","iso2":"CN","cartodb_id":92,"created_at":"2014-05-19T13:14:05Z","updated_at":"2014-05-30T01:06:11Z"}},{"type":"Feature","geometry":{"type":"Point","coordinates":[117.2808,31.8639]},"properties":{"country":"China","city_station":"Hefei","pm_2_5":53,"latitude":"31.8639","longitude":"117.2808","iso2":"CN","cartodb_id":93,"created_at":"2014-05-19T13:14:05Z","updated_at":"2014-05-30T01:06:11Z"}},{"type":"Feature","geometry":{"type":"Point","coordinates":[118.5707,31.1461]},"properties":{"country":"China","city_station":"Wuhu","pm_2_5":34,"latitude":"31.1461","longitude":"118.5707","iso2":"CN","cartodb_id":94,"created_at":"2014-05-19T13:14:05Z","updated_at":"2014-05-30T01:06:11Z"}},{"type":"Feature","geometry":{"type":"Point","coordinates":[139.218611,37.916389]},"properties":{"country":"Japan","city_station":"Kita-ku/Niigata","pm_2_5":9,"latitude":"37.916389","longitude":"139.218611","iso2":"JP","cartodb_id":95,"created_at":"2014-05-19T13:14:05Z","updated_at":"2014-05-30T01:06:11Z"}},{"type":"Feature","geometry":{"type":"Point","coordinates":[11.6667,52.1667]},"properties":{"country":"Germany","city_station":"Magdeburg","pm_2_5":18,"latitude":"52.1667","longitude":"11.6667","iso2":"DE","cartodb_id":96,"created_at":"2014-05-19T13:14:05Z","updated_at":"2014-05-30T01:06:11Z"}},{"type":"Feature","geometry":{"type":"Point","coordinates":[-86.8127,33.5248]},"properties":{"country":"United States of America","city_station":"Birmingham","pm_2_5":12,"latitude":"33.5248","longitude":"-86.8127","iso2":"US","cartodb_id":97,"created_at":"2014-05-19T13:14:05Z","updated_at":"2014-05-30T01:06:11Z"}},{"type":"Feature","geometry":{"type":"Point","coordinates":[127.1522,36.8065]},"properties":{"country":"South Korea","city_station":"Cheonan","pm_2_5":22,"latitude":"36.8065","longitude":"127.1522","iso2":"KR","cartodb_id":98,"created_at":"2014-05-19T13:14:05Z","updated_at":"2014-05-30T01:06:11Z"}},{"type":"Feature","geometry":{"type":"Point","coordinates":[-78.9673,34.6008]},"properties":{"country":"United States of America","city_station":"Lumberton","pm_2_5":9,"latitude":"34.6008","longitude":"-78.9673","iso2":"US","cartodb_id":99,"created_at":"2014-05-19T13:14:05Z","updated_at":"2014-05-30T01:06:11Z"}},{"type":"Feature","geometry":{"type":"Point","coordinates":[-119.4667,49.0333]},"properties":{"country":"Canada","city_station":"Osoyoos","pm_2_5":5,"latitude":"49.0333","longitude":"-119.4667","iso2":"CA","cartodb_id":100,"created_at":"2014-05-19T13:14:05Z","updated_at":"2014-05-30T01:06:11Z"}},{"type":"Feature","geometry":{"type":"Point","coordinates":[-79.8873,37.9544]},"properties":{"country":"United States of America","city_station":"Hot Springs","pm_2_5":11,"latitude":"37.9544","longitude":"-79.8873","iso2":"US","cartodb_id":101,"created_at":"2014-05-19T13:14:05Z","updated_at":"2014-05-30T01:06:11Z"}},{"type":"Feature","geometry":{"type":"Point","coordinates":[0.3333,46.5833]},"properties":{"country":"France","city_station":"Poitiers","pm_2_5":17,"latitude":"46.5833","longitude":"0.3333","iso2":"FR","cartodb_id":102,"created_at":"2014-05-19T13:14:05Z","updated_at":"2014-05-30T01:06:11Z"}},{"type":"Feature","geometry":{"type":"Point","coordinates":[-72.416667,45.316667]},"properties":{"country":"Canada","city_station":"Stukely-Sud","pm_2_5":9,"latitude":"45.316667","longitude":"-72.416667","iso2":"CA","cartodb_id":103,"created_at":"2014-05-19T13:14:05Z","updated_at":"2014-05-30T01:06:11Z"}},{"type":"Feature","geometry":{"type":"Point","coordinates":[100.5134,13.8622]},"properties":{"country":"Thailand","city_station":"Nonthaburi","pm_2_5":18,"latitude":"13.8622","longitude":"100.5134","iso2":"TH","cartodb_id":104,"created_at":"2014-05-19T13:14:05Z","updated_at":"2014-05-30T01:06:11Z"}},{"type":"Feature","geometry":{"type":"Point","coordinates":[-72.0875,41.550278]},"properties":{"country":"United States of America","city_station":"Norwich","pm_2_5":8,"latitude":"41.550278","longitude":"-72.0875","iso2":"US","cartodb_id":105,"created_at":"2014-05-19T13:14:05Z","updated_at":"2014-05-30T01:06:11Z"}},{"type":"Feature","geometry":{"type":"Point","coordinates":[-0.8849,41.6453]},"properties":{"country":"Spain","city_station":"Zaragoza","pm_2_5":12,"latitude":"41.6453","longitude":"-0.8849","iso2":"ES","cartodb_id":106,"created_at":"2014-05-19T13:14:05Z","updated_at":"2014-05-30T01:06:11Z"}},{"type":"Feature","geometry":{"type":"Point","coordinates":[125.3228,43.88]},"properties":{"country":"China","city_station":"Changchun","pm_2_5":38,"latitude":"43.88","longitude":"125.3228","iso2":"CN","cartodb_id":107,"created_at":"2014-05-19T13:14:05Z","updated_at":"2014-05-30T01:06:11Z"}},{"type":"Feature","geometry":{"type":"Point","coordinates":[15.6467,46.5547]},"properties":{"country":"Slovenia","city_station":"Maribor","pm_2_5":23,"latitude":"46.5547","longitude":"15.6467","iso2":"SI","cartodb_id":108,"created_at":"2014-05-19T13:14:05Z","updated_at":"2014-05-30T01:06:11Z"}},{"type":"Feature","geometry":{"type":"Point","coordinates":[-73.1198,7.1254]},"properties":{"country":"Colombia","city_station":"Bucaramanga","pm_2_5":22,"latitude":"7.1254","longitude":"-73.1198","iso2":"CO","cartodb_id":109,"created_at":"2014-05-19T13:14:05Z","updated_at":"2014-05-30T01:06:11Z"}},{"type":"Feature","geometry":{"type":"Point","coordinates":[24.1,56.95]},"properties":{"country":"Latvia","city_station":"Riga","pm_2_5":16,"latitude":"56.95","longitude":"24.1","iso2":"LV","cartodb_id":110,"created_at":"2014-05-19T13:14:05Z","updated_at":"2014-05-30T01:06:11Z"}},{"type":"Feature","geometry":{"type":"Point","coordinates":[100.7297,18.7929]},"properties":{"country":"Thailand","city_station":"Nan","pm_2_5":23,"latitude":"18.7929","longitude":"100.7297","iso2":"TH","cartodb_id":111,"created_at":"2014-05-19T13:14:05Z","updated_at":"2014-05-30T01:06:11Z"}},{"type":"Feature","geometry":{"type":"Point","coordinates":[126.7114,35.9786]},"properties":{"country":"South Korea","city_station":"Gunsan","pm_2_5":24,"latitude":"35.9786","longitude":"126.7114","iso2":"KR","cartodb_id":112,"created_at":"2014-05-19T13:14:05Z","updated_at":"2014-05-30T01:06:11Z"}},{"type":"Feature","geometry":{"type":"Point","coordinates":[-71.35,-35.1333]},"properties":{"country":"Chile","city_station":"Puente Alto","pm_2_5":22,"latitude":"-35.1333","longitude":"-71.35","iso2":"CL","cartodb_id":113,"created_at":"2014-05-19T13:14:05Z","updated_at":"2014-05-30T01:06:11Z"}},{"type":"Feature","geometry":{"type":"Point","coordinates":[77.3,30.55]},"properties":{"country":"India","city_station":"Nahan","pm_2_5":48,"latitude":"30.55","longitude":"77.3","iso2":"IN","cartodb_id":114,"created_at":"2014-05-19T13:14:05Z","updated_at":"2014-05-30T01:06:11Z"}},{"type":"Feature","geometry":{"type":"Point","coordinates":[-111.8709,41.7048]},"properties":{"country":"United States of America","city_station":"Logan","pm_2_5":9,"latitude":"41.7048","longitude":"-111.8709","iso2":"US","cartodb_id":115,"created_at":"2014-05-19T13:14:05Z","updated_at":"2014-05-30T01:06:11Z"}},{"type":"Feature","geometry":{"type":"Point","coordinates":[-75.6675,41.410556]},"properties":{"country":"United States of America","city_station":"Scranton","pm_2_5":8,"latitude":"41.410556","longitude":"-75.6675","iso2":"US","cartodb_id":116,"created_at":"2014-05-19T13:14:05Z","updated_at":"2014-05-30T01:06:11Z"}},{"type":"Feature","geometry":{"type":"Point","coordinates":[-4.8857,36.5105]},"properties":{"country":"Spain","city_station":"Marbella","pm_2_5":7,"latitude":"36.5105","longitude":"-4.8857","iso2":"ES","cartodb_id":117,"created_at":"2014-05-19T13:14:05Z","updated_at":"2014-05-30T01:06:11Z"}},{"type":"Feature","geometry":{"type":"Point","coordinates":[-76.3246,40.0052]},"properties":{"country":"United States of America","city_station":"Lancaster","pm_2_5":13,"latitude":"40.0052","longitude":"-76.3246","iso2":"US","cartodb_id":118,"created_at":"2014-05-19T13:14:05Z","updated_at":"2014-05-30T01:06:11Z"}},{"type":"Feature","geometry":{"type":"Point","coordinates":[-47.5167,-22.4667]},"properties":{"country":"Brazil","city_station":"Santa Gertrudes","pm_2_5":44,"latitude":"-22.4667","longitude":"-47.5167","iso2":"BR","cartodb_id":119,"created_at":"2014-05-19T13:14:05Z","updated_at":"2014-05-30T01:06:11Z"}},{"type":"Feature","geometry":{"type":"Point","coordinates":[-79.921,37.2177]},"properties":{"country":"United States of America","city_station":"Roanoke","pm_2_5":9,"latitude":"37.2177","longitude":"-79.921","iso2":"US","cartodb_id":120,"created_at":"2014-05-19T13:14:05Z","updated_at":"2014-05-30T01:06:11Z"}},{"type":"Feature","geometry":{"type":"Point","coordinates":[120.0933,30.8703]},"properties":{"country":"China","city_station":"Huzhou","pm_2_5":39,"latitude":"30.8703","longitude":"120.0933","iso2":"CN","cartodb_id":121,"created_at":"2014-05-19T13:14:05Z","updated_at":"2014-05-30T01:06:11Z"}},{"type":"Feature","geometry":{"type":"Point","coordinates":[28.333333,-25.666667]},"properties":{"country":"South Africa","city_station":"Tshwane ","pm_2_5":31,"latitude":"-25.666667","longitude":"28.333333","iso2":"ZA","cartodb_id":122,"created_at":"2014-05-19T13:14:05Z","updated_at":"2014-05-30T01:06:11Z"}},{"type":"Feature","geometry":{"type":"Point","coordinates":[11.25,43.7667]},"properties":{"country":"Italy","city_station":"Firenze","pm_2_5":16,"latitude":"43.7667","longitude":"11.25","iso2":"IT","cartodb_id":123,"created_at":"2014-05-19T13:14:05Z","updated_at":"2014-05-30T01:06:11Z"}},{"type":"Feature","geometry":{"type":"Point","coordinates":[78.4167,27.15]},"properties":{"country":"India","city_station":"Firozabad","pm_2_5":96,"latitude":"27.15","longitude":"78.4167","iso2":"IN","cartodb_id":125,"created_at":"2014-05-19T13:14:05Z","updated_at":"2014-05-30T01:06:11Z"}},{"type":"Feature","geometry":{"type":"Point","coordinates":[-64.716667,10.116667]},"properties":{"country":"Venezuela","city_station":"Barcelona","pm_2_5":32,"latitude":"10.116667","longitude":"-64.716667","iso2":"VE","cartodb_id":126,"created_at":"2014-05-19T13:14:05Z","updated_at":"2014-05-30T01:06:11Z"}},{"type":"Feature","geometry":{"type":"Point","coordinates":[-85.836667,41.581944]},"properties":{"country":"United States of America","city_station":"Elkhart","pm_2_5":12,"latitude":"41.581944","longitude":"-85.836667","iso2":"US","cartodb_id":127,"created_at":"2014-05-19T13:14:05Z","updated_at":"2014-05-30T01:06:11Z"}},{"type":"Feature","geometry":{"type":"Point","coordinates":[37.115,36.7161]},"properties":{"country":"Turkey","city_station":"Kilis","pm_2_5":47,"latitude":"36.7161","longitude":"37.115","iso2":"TR","cartodb_id":128,"created_at":"2014-05-19T13:14:05Z","updated_at":"2014-05-30T01:06:11Z"}},{"type":"Feature","geometry":{"type":"Point","coordinates":[-8.6891,41.1821]},"properties":{"country":"Portugal","city_station":"Matosinhos","pm_2_5":13,"latitude":"41.1821","longitude":"-8.6891","iso2":"PT","cartodb_id":129,"created_at":"2014-05-19T13:14:05Z","updated_at":"2014-05-30T01:06:11Z"}},{"type":"Feature","geometry":{"type":"Point","coordinates":[14.65,41.5667]},"properties":{"country":"Italy","city_station":"Campobasso","pm_2_5":15,"latitude":"41.5667","longitude":"14.65","iso2":"IT","cartodb_id":130,"created_at":"2014-05-19T13:14:05Z","updated_at":"2014-05-30T01:06:11Z"}},{"type":"Feature","geometry":{"type":"Point","coordinates":[41.8194,41.1822]},"properties":{"country":"Turkey","city_station":"Artvin","pm_2_5":23,"latitude":"41.1822","longitude":"41.8194","iso2":"TR","cartodb_id":131,"created_at":"2014-05-19T13:14:05Z","updated_at":"2014-05-30T01:06:11Z"}},{"type":"Feature","geometry":{"type":"Point","coordinates":[105.9228,49.4867]},"properties":{"country":"Mongolia","city_station":"Darkhan","pm_2_5":80,"latitude":"49.4867","longitude":"105.9228","iso2":"MN","cartodb_id":132,"created_at":"2014-05-19T13:14:05Z","updated_at":"2014-05-30T01:06:11Z"}},{"type":"Feature","geometry":{"type":"Point","coordinates":[5.445429,43.526304]},"properties":{"country":"France","city_station":"Aix-en-Provence","pm_2_5":19,"latitude":"43.526304","longitude":"5.445429","iso2":"FR","cartodb_id":133,"created_at":"2014-05-19T13:14:05Z","updated_at":"2014-05-30T01:06:11Z"}},{"type":"Feature","geometry":{"type":"Point","coordinates":[-3.833333,40.35]},"properties":{"country":"Spain","city_station":"Alcorcon","pm_2_5":12,"latitude":"40.35","longitude":"-3.833333","iso2":"ES","cartodb_id":134,"created_at":"2014-05-19T13:14:05Z","updated_at":"2014-05-30T01:06:11Z"}},{"type":"Feature","geometry":{"type":"Point","coordinates":[-119.1825,34.191389]},"properties":{"country":"United States of America","city_station":"Oxnard","pm_2_5":10,"latitude":"34.191389","longitude":"-119.1825","iso2":"US","cartodb_id":135,"created_at":"2014-05-19T13:14:05Z","updated_at":"2014-05-30T01:06:11Z"}},{"type":"Feature","geometry":{"type":"Point","coordinates":[-155.1413,19.6976]},"properties":{"country":"United States of America","city_station":"Hilo","pm_2_5":16,"latitude":"19.6976","longitude":"-155.1413","iso2":"US","cartodb_id":136,"created_at":"2014-05-19T13:14:05Z","updated_at":"2014-05-30T01:06:11Z"}},{"type":"Feature","geometry":{"type":"Point","coordinates":[-96.8391,43.5042]},"properties":{"country":"United States of America","city_station":"Sioux Falls","pm_2_5":9,"latitude":"43.5042","longitude":"-96.8391","iso2":"US","cartodb_id":137,"created_at":"2014-05-19T13:14:05Z","updated_at":"2014-05-30T01:06:11Z"}},{"type":"Feature","geometry":{"type":"Point","coordinates":[-3.6753,42.3502]},"properties":{"country":"Spain","city_station":"Burgos","pm_2_5":14,"latitude":"42.3502","longitude":"-3.6753","iso2":"ES","cartodb_id":138,"created_at":"2014-05-19T13:14:05Z","updated_at":"2014-05-30T01:06:11Z"}},{"type":"Feature","geometry":{"type":"Point","coordinates":[-81.6333,38.3472]},"properties":{"country":"United States of America","city_station":"Charleston-WV","pm_2_5":11,"latitude":"38.3472","longitude":"-81.6333","iso2":"US","cartodb_id":139,"created_at":"2014-05-19T13:14:05Z","updated_at":"2014-05-30T01:06:11Z"}},{"type":"Feature","geometry":{"type":"Point","coordinates":[113.5325,34.6836]},"properties":{"country":"China","city_station":"Zhengzhou","pm_2_5":51,"latitude":"34.6836","longitude":"113.5325","iso2":"CN","cartodb_id":140,"created_at":"2014-05-19T13:14:05Z","updated_at":"2014-05-30T01:06:11Z"}},{"type":"Feature","geometry":{"type":"Point","coordinates":[38.3874,40.917]},"properties":{"country":"Turkey","city_station":"Giresun","pm_2_5":14,"latitude":"40.917","longitude":"38.3874","iso2":"TR","cartodb_id":141,"created_at":"2014-05-19T13:14:05Z","updated_at":"2014-05-30T01:06:11Z"}},{"type":"Feature","geometry":{"type":"Point","coordinates":[5.0535,43.4051]},"properties":{"country":"France","city_station":"Martigues","pm_2_5":23,"latitude":"43.4051","longitude":"5.0535","iso2":"FR","cartodb_id":142,"created_at":"2014-05-19T13:14:05Z","updated_at":"2014-05-30T01:06:11Z"}},{"type":"Feature","geometry":{"type":"Point","coordinates":[-77.9021,40.7975]},"properties":{"country":"United States of America","city_station":"State College","pm_2_5":11,"latitude":"40.7975","longitude":"-77.9021","iso2":"US","cartodb_id":143,"created_at":"2014-05-19T13:14:05Z","updated_at":"2014-05-30T01:06:11Z"}},{"type":"Feature","geometry":{"type":"Point","coordinates":[-104.6167,50.45]},"properties":{"country":"Canada","city_station":"Regina","pm_2_5":7,"latitude":"50.45","longitude":"-104.6167","iso2":"CA","cartodb_id":144,"created_at":"2014-05-19T13:14:05Z","updated_at":"2014-05-30T01:06:11Z"}},{"type":"Feature","geometry":{"type":"Point","coordinates":[8.6833,50.1167]},"properties":{"country":"Germany","city_station":"Frankfurt","pm_2_5":19,"latitude":"50.1167","longitude":"8.6833","iso2":"DE","cartodb_id":145,"created_at":"2014-05-19T13:14:05Z","updated_at":"2014-05-30T01:06:11Z"}},{"type":"Feature","geometry":{"type":"Point","coordinates":[27.5667,53.9]},"properties":{"country":"Belarus","city_station":"Minsk","pm_2_5":17,"latitude":"53.9","longitude":"27.5667","iso2":"BY","cartodb_id":146,"created_at":"2014-05-19T13:14:05Z","updated_at":"2014-05-30T01:06:11Z"}},{"type":"Feature","geometry":{"type":"Point","coordinates":[20.4681,44.8186]},"properties":{"country":"Serbia","city_station":"Beograd","pm_2_5":34,"latitude":"44.8186","longitude":"20.4681","iso2":"RS","cartodb_id":147,"created_at":"2014-05-19T13:14:05Z","updated_at":"2014-05-30T01:06:11Z"}},{"type":"Feature","geometry":{"type":"Point","coordinates":[4.35,50.85]},"properties":{"country":"Belgium","city_station":"Brussels","pm_2_5":18,"latitude":"50.85","longitude":"4.35","iso2":"BE","cartodb_id":148,"created_at":"2014-05-19T13:14:05Z","updated_at":"2014-05-30T01:06:11Z"}},{"type":"Feature","geometry":{"type":"Point","coordinates":[15.734444,50.903333]},"properties":{"country":"Poland","city_station":"Jelenia Gora","pm_2_5":35,"latitude":"50.903333","longitude":"15.734444","iso2":"PL","cartodb_id":149,"created_at":"2014-05-19T13:14:05Z","updated_at":"2014-05-30T01:06:11Z"}},{"type":"Feature","geometry":{"type":"Point","coordinates":[78.1792,26.2236]},"properties":{"country":"India","city_station":"Gwalior","pm_2_5":144,"latitude":"26.2236","longitude":"78.1792","iso2":"IN","cartodb_id":150,"created_at":"2014-05-19T13:14:05Z","updated_at":"2014-05-30T01:06:11Z"}},{"type":"Feature","geometry":{"type":"Point","coordinates":[39.5471,39.1083]},"properties":{"country":"Turkey","city_station":"Tunceli","pm_2_5":27,"latitude":"39.1083","longitude":"39.5471","iso2":"TR","cartodb_id":151,"created_at":"2014-05-19T13:14:05Z","updated_at":"2014-05-30T01:06:11Z"}},{"type":"Feature","geometry":{"type":"Point","coordinates":[-86.3222,32.3934]},"properties":{"country":"United States of America","city_station":"Montgomery","pm_2_5":11,"latitude":"32.3934","longitude":"-86.3222","iso2":"US","cartodb_id":152,"created_at":"2014-05-19T13:14:05Z","updated_at":"2014-05-30T01:06:11Z"}},{"type":"Feature","geometry":{"type":"Point","coordinates":[70.0667,22.4667]},"properties":{"country":"India","city_station":"Jamnagar","pm_2_5":46,"latitude":"22.4667","longitude":"70.0667","iso2":"IN","cartodb_id":153,"created_at":"2014-05-19T13:14:05Z","updated_at":"2014-05-30T01:06:11Z"}},{"type":"Feature","geometry":{"type":"Point","coordinates":[10.1333,54.3333]},"properties":{"country":"Germany","city_station":"Kiel","pm_2_5":17,"latitude":"54.3333","longitude":"10.1333","iso2":"DE","cartodb_id":154,"created_at":"2014-05-19T13:14:05Z","updated_at":"2014-05-30T01:06:11Z"}},{"type":"Feature","geometry":{"type":"Point","coordinates":[55.744722,24.2075]},"properties":{"country":"United Arab Emirates","city_station":"Al Ain","pm_2_5":52,"latitude":"24.2075","longitude":"55.744722","iso2":"AE","cartodb_id":155,"created_at":"2014-05-19T13:14:05Z","updated_at":"2014-05-30T01:06:11Z"}},{"type":"Feature","geometry":{"type":"Point","coordinates":[108.7026,34.3378]},"properties":{"country":"China","city_station":"Xianyang","pm_2_5":43,"latitude":"34.3378","longitude":"108.7026","iso2":"CN","cartodb_id":156,"created_at":"2014-05-19T13:14:05Z","updated_at":"2014-05-30T01:06:11Z"}},{"type":"Feature","geometry":{"type":"Point","coordinates":[-65.4666,47.0298]},"properties":{"country":"Canada","city_station":"Chatham","pm_2_5":8,"latitude":"47.0298","longitude":"-65.4666","iso2":"CA","cartodb_id":157,"created_at":"2014-05-19T13:14:05Z","updated_at":"2014-05-30T01:06:11Z"}},{"type":"Feature","geometry":{"type":"Point","coordinates":[-114.3857,48.1987]},"properties":{"country":"United States of America","city_station":"Kalispell","pm_2_5":8,"latitude":"48.1987","longitude":"-114.3857","iso2":"US","cartodb_id":158,"created_at":"2014-05-19T13:14:05Z","updated_at":"2014-05-30T01:06:11Z"}},{"type":"Feature","geometry":{"type":"Point","coordinates":[-46.460833,-23.667778]},"properties":{"country":"Brazil","city_station":"Maua","pm_2_5":19,"latitude":"-23.667778","longitude":"-46.460833","iso2":"BR","cartodb_id":159,"created_at":"2014-05-19T13:14:05Z","updated_at":"2014-05-30T01:06:11Z"}},{"type":"Feature","geometry":{"type":"Point","coordinates":[6.1053,50.7708]},"properties":{"country":"Germany","city_station":"Aachen","pm_2_5":15,"latitude":"50.7708","longitude":"6.1053","iso2":"DE","cartodb_id":160,"created_at":"2014-05-19T13:14:05Z","updated_at":"2014-05-30T01:06:11Z"}},{"type":"Feature","geometry":{"type":"Point","coordinates":[111.5189,36.0889]},"properties":{"country":"China","city_station":"Linfen","pm_2_5":39,"latitude":"36.0889","longitude":"111.5189","iso2":"CN","cartodb_id":161,"created_at":"2014-05-19T13:14:05Z","updated_at":"2014-05-30T01:06:11Z"}},{"type":"Feature","geometry":{"type":"Point","coordinates":[4.8467,45.7485]},"properties":{"country":"France","city_station":"Lyon","pm_2_5":20,"latitude":"45.7485","longitude":"4.8467","iso2":"FR","cartodb_id":162,"created_at":"2014-05-19T13:14:05Z","updated_at":"2014-05-30T01:06:11Z"}},{"type":"Feature","geometry":{"type":"Point","coordinates":[19.0333,52.65]},"properties":{"country":"Poland","city_station":"Wloclawek","pm_2_5":19,"latitude":"52.65","longitude":"19.0333","iso2":"PL","cartodb_id":163,"created_at":"2014-05-19T13:14:05Z","updated_at":"2014-05-30T01:06:11Z"}},{"type":"Feature","geometry":{"type":"Point","coordinates":[113.1169,38.1672]},"properties":{"country":"China","city_station":"Shijiazhuang","pm_2_5":45,"latitude":"38.1672","longitude":"113.1169","iso2":"CN","cartodb_id":164,"created_at":"2014-05-19T13:14:05Z","updated_at":"2014-05-30T01:06:11Z"}},{"type":"Feature","geometry":{"type":"Point","coordinates":[21.2272,45.7494]},"properties":{"country":"Romania","city_station":"Timisoara","pm_2_5":13,"latitude":"45.7494","longitude":"21.2272","iso2":"RO","cartodb_id":165,"created_at":"2014-05-19T13:14:05Z","updated_at":"2014-05-30T01:06:11Z"}},{"type":"Feature","geometry":{"type":"Point","coordinates":[-92.46295,44.0234]},"properties":{"country":"United States of America","city_station":"Rochester-MN","pm_2_5":8,"latitude":"44.0234","longitude":"-92.46295","iso2":"US","cartodb_id":166,"created_at":"2014-05-19T13:14:05Z","updated_at":"2014-05-30T01:06:11Z"}},{"type":"Feature","geometry":{"type":"Point","coordinates":[-83.3491,42.5065]},"properties":{"country":"United States of America","city_station":"Farmington","pm_2_5":5,"latitude":"42.5065","longitude":"-83.3491","iso2":"US","cartodb_id":167,"created_at":"2014-05-19T13:14:05Z","updated_at":"2014-05-30T01:06:11Z"}},{"type":"Feature","geometry":{"type":"Point","coordinates":[4.8951,44.928]},"properties":{"country":"France","city_station":"Valence","pm_2_5":19,"latitude":"44.928","longitude":"4.8951","iso2":"FR","cartodb_id":168,"created_at":"2014-05-19T13:14:05Z","updated_at":"2014-05-30T01:06:11Z"}},{"type":"Feature","geometry":{"type":"Point","coordinates":[-89.8324,33.7404]},"properties":{"country":"United States of America","city_station":"Grenada","pm_2_5":9,"latitude":"33.7404","longitude":"-89.8324","iso2":"US","cartodb_id":169,"created_at":"2014-05-19T13:14:05Z","updated_at":"2014-05-30T01:06:11Z"}},{"type":"Feature","geometry":{"type":"Point","coordinates":[95.3667,27.5]},"properties":{"country":"India","city_station":"Tinsukia","pm_2_5":25,"latitude":"27.5","longitude":"95.3667","iso2":"IN","cartodb_id":170,"created_at":"2014-05-19T13:14:05Z","updated_at":"2014-05-30T01:06:11Z"}},{"type":"Feature","geometry":{"type":"Point","coordinates":[-122.4833,52.9833]},"properties":{"country":"Canada","city_station":"Quesnel","pm_2_5":7,"latitude":"52.9833","longitude":"-122.4833","iso2":"CA","cartodb_id":171,"created_at":"2014-05-19T13:14:05Z","updated_at":"2014-05-30T01:06:11Z"}},{"type":"Feature","geometry":{"type":"Point","coordinates":[100.2605,5.2999]},"properties":{"country":"Malaysia","city_station":"Bayan Lepas","pm_2_5":13,"latitude":"5.2999","longitude":"100.2605","iso2":"MY","cartodb_id":172,"created_at":"2014-05-19T13:14:05Z","updated_at":"2014-05-30T01:06:11Z"}},{"type":"Feature","geometry":{"type":"Point","coordinates":[-86.9211,33.2507]},"properties":{"country":"United States of America","city_station":"Helena-AL","pm_2_5":9,"latitude":"33.2507","longitude":"-86.9211","iso2":"US","cartodb_id":173,"created_at":"2014-05-19T13:14:05Z","updated_at":"2014-05-30T01:06:11Z"}},{"type":"Feature","geometry":{"type":"Point","coordinates":[-8.4958,51.8986]},"properties":{"country":"Ireland","city_station":"Cork","pm_2_5":8,"latitude":"51.8986","longitude":"-8.4958","iso2":"IE","cartodb_id":174,"created_at":"2014-05-19T13:14:05Z","updated_at":"2014-05-30T01:06:11Z"}},{"type":"Feature","geometry":{"type":"Point","coordinates":[126.65,45.75]},"properties":{"country":"China","city_station":"Harbin","pm_2_5":46,"latitude":"45.75","longitude":"126.65","iso2":"CN","cartodb_id":175,"created_at":"2014-05-19T13:14:05Z","updated_at":"2014-05-30T01:06:11Z"}},{"type":"Feature","geometry":{"type":"Point","coordinates":[126.7317,37.4536]},"properties":{"country":"South Korea","city_station":"Incheon","pm_2_5":25,"latitude":"37.4536","longitude":"126.7317","iso2":"KR","cartodb_id":176,"created_at":"2014-05-19T13:14:05Z","updated_at":"2014-05-30T01:06:11Z"}},{"type":"Feature","geometry":{"type":"Point","coordinates":[76.38,31.37]},"properties":{"country":"India","city_station":"Naya Nangal","pm_2_5":42,"latitude":"31.37","longitude":"76.38","iso2":"IN","cartodb_id":177,"created_at":"2014-05-19T13:14:05Z","updated_at":"2014-05-30T01:06:11Z"}},{"type":"Feature","geometry":{"type":"Point","coordinates":[114.4186,34.7442]},"properties":{"country":"China","city_station":"Kaifeng","pm_2_5":51,"latitude":"34.7442","longitude":"114.4186","iso2":"CN","cartodb_id":178,"created_at":"2014-05-19T13:14:05Z","updated_at":"2014-05-30T01:06:11Z"}},{"type":"Feature","geometry":{"type":"Point","coordinates":[1.4332,43.5995]},"properties":{"country":"France","city_station":"Toulouse","pm_2_5":20,"latitude":"43.5995","longitude":"1.4332","iso2":"FR","cartodb_id":179,"created_at":"2014-05-19T13:14:05Z","updated_at":"2014-05-30T01:06:11Z"}},{"type":"Feature","geometry":{"type":"Point","coordinates":[21.9033,43.3247]},"properties":{"country":"Serbia","city_station":"Nis","pm_2_5":45,"latitude":"43.3247","longitude":"21.9033","iso2":"RS","cartodb_id":180,"created_at":"2014-05-19T13:14:05Z","updated_at":"2014-05-30T01:06:11Z"}},{"type":"Feature","geometry":{"type":"Point","coordinates":[-74.0628,4.6492]},"properties":{"country":"Colombia","city_station":"Bogota","pm_2_5":27,"latitude":"4.6492","longitude":"-74.0628","iso2":"CO","cartodb_id":181,"created_at":"2014-05-19T13:14:05Z","updated_at":"2014-05-30T01:06:11Z"}},{"type":"Feature","geometry":{"type":"Point","coordinates":[100.9835,13.3622]},"properties":{"country":"Thailand","city_station":"Chon Buri","pm_2_5":11,"latitude":"13.3622","longitude":"100.9835","iso2":"TH","cartodb_id":182,"created_at":"2014-05-19T13:14:05Z","updated_at":"2014-05-30T01:06:11Z"}},{"type":"Feature","geometry":{"type":"Point","coordinates":[-71.1787,42.3722]},"properties":{"country":"United States of America","city_station":"Watertown","pm_2_5":11,"latitude":"42.3722","longitude":"-71.1787","iso2":"US","cartodb_id":183,"created_at":"2014-05-19T13:14:05Z","updated_at":"2014-05-30T01:06:11Z"}},{"type":"Feature","geometry":{"type":"Point","coordinates":[100.717778,46.191667]},"properties":{"country":"Mongolia","city_station":"Bayankhongor","pm_2_5":59,"latitude":"46.191667","longitude":"100.717778","iso2":"MN","cartodb_id":184,"created_at":"2014-05-19T13:14:05Z","updated_at":"2014-05-30T01:06:11Z"}},{"type":"Feature","geometry":{"type":"Point","coordinates":[7.1278,43.5624]},"properties":{"country":"France","city_station":"Antibes","pm_2_5":22,"latitude":"43.5624","longitude":"7.1278","iso2":"FR","cartodb_id":185,"created_at":"2014-05-19T13:14:05Z","updated_at":"2014-05-30T01:06:11Z"}},{"type":"Feature","geometry":{"type":"Point","coordinates":[-86.886944,41.709444]},"properties":{"country":"United States of America","city_station":"Michigan City","pm_2_5":10,"latitude":"41.709444","longitude":"-86.886944","iso2":"US","cartodb_id":186,"created_at":"2014-05-19T13:14:05Z","updated_at":"2014-05-30T01:06:11Z"}},{"type":"Feature","geometry":{"type":"Point","coordinates":[-6.1982,36.4759]},"properties":{"country":"Chile","city_station":"San Fernando","pm_2_5":21,"latitude":"36.4759","longitude":"-6.1982","iso2":"CL","cartodb_id":187,"created_at":"2014-05-19T13:14:05Z","updated_at":"2014-05-30T01:06:11Z"}},{"type":"Feature","geometry":{"type":"Point","coordinates":[-123.7,48.7833]},"properties":{"country":"Canada","city_station":"Duncan","pm_2_5":4,"latitude":"48.7833","longitude":"-123.7","iso2":"CA","cartodb_id":188,"created_at":"2014-05-19T13:14:05Z","updated_at":"2014-05-30T01:06:11Z"}},{"type":"Feature","geometry":{"type":"Point","coordinates":[28.05,45.45]},"properties":{"country":"Romania","city_station":"Galati","pm_2_5":12,"latitude":"45.45","longitude":"28.05","iso2":"RO","cartodb_id":189,"created_at":"2014-05-19T13:14:05Z","updated_at":"2014-05-30T01:06:11Z"}},{"type":"Feature","geometry":{"type":"Point","coordinates":[72.9,20.3667]},"properties":{"country":"India","city_station":"Vapi","pm_2_5":32,"latitude":"20.3667","longitude":"72.9","iso2":"IN","cartodb_id":190,"created_at":"2014-05-19T13:14:05Z","updated_at":"2014-05-30T01:06:11Z"}},{"type":"Feature","geometry":{"type":"Point","coordinates":[-88.9442,39.8517]},"properties":{"country":"United States of America","city_station":"Decatur-IL","pm_2_5":10,"latitude":"39.8517","longitude":"-88.9442","iso2":"US","cartodb_id":191,"created_at":"2014-05-19T13:14:05Z","updated_at":"2014-05-30T01:06:11Z"}},{"type":"Feature","geometry":{"type":"Point","coordinates":[-73.1255,41.8394]},"properties":{"country":"United States of America","city_station":"Torrington","pm_2_5":6,"latitude":"41.8394","longitude":"-73.1255","iso2":"US","cartodb_id":192,"created_at":"2014-05-19T13:14:05Z","updated_at":"2014-05-30T01:06:11Z"}},{"type":"Feature","geometry":{"type":"Point","coordinates":[-98.2,19.05]},"properties":{"country":"Mexico","city_station":"Puebla","pm_2_5":20,"latitude":"19.05","longitude":"-98.2","iso2":"MX","cartodb_id":193,"created_at":"2014-05-19T13:14:05Z","updated_at":"2014-05-30T01:06:11Z"}},{"type":"Feature","geometry":{"type":"Point","coordinates":[-119.821944,39.527222]},"properties":{"country":"United States of America","city_station":"Reno","pm_2_5":9,"latitude":"39.527222","longitude":"-119.821944","iso2":"US","cartodb_id":194,"created_at":"2014-05-19T13:14:05Z","updated_at":"2014-05-30T01:06:11Z"}},{"type":"Feature","geometry":{"type":"Point","coordinates":[76.0667,22.9667]},"properties":{"country":"India","city_station":"Dewas","pm_2_5":43,"latitude":"22.9667","longitude":"76.0667","iso2":"IN","cartodb_id":195,"created_at":"2014-05-19T13:14:05Z","updated_at":"2014-05-30T01:06:11Z"}},{"type":"Feature","geometry":{"type":"Point","coordinates":[-5.662,40.9681]},"properties":{"country":"Mexico","city_station":"Salamanca","pm_2_5":20,"latitude":"40.9681","longitude":"-5.662","iso2":"MX","cartodb_id":196,"created_at":"2014-05-19T13:14:05Z","updated_at":"2014-05-30T01:06:11Z"}},{"type":"Feature","geometry":{"type":"Point","coordinates":[-114.9833,53.2167]},"properties":{"country":"Canada","city_station":"Drayton Valley","pm_2_5":9,"latitude":"53.2167","longitude":"-114.9833","iso2":"CA","cartodb_id":197,"created_at":"2014-05-19T13:14:05Z","updated_at":"2014-05-30T01:06:11Z"}},{"type":"Feature","geometry":{"type":"Point","coordinates":[-1.5833,53.8]},"properties":{"country":"United Kingdom","city_station":"Leeds","pm_2_5":16,"latitude":"53.8","longitude":"-1.5833","iso2":"GB","cartodb_id":198,"created_at":"2014-05-19T13:14:05Z","updated_at":"2014-05-30T01:06:11Z"}},{"type":"Feature","geometry":{"type":"Point","coordinates":[175.2833,-37.7833]},"properties":{"country":"New Zealand","city_station":"Hamilton","pm_2_5":6,"latitude":"-37.7833","longitude":"175.2833","iso2":"NZ","cartodb_id":199,"created_at":"2014-05-19T13:14:05Z","updated_at":"2014-05-30T01:06:11Z"}},{"type":"Feature","geometry":{"type":"Point","coordinates":[-5.333333,36.166667]},"properties":{"country":"Spain","city_station":"La Linea de la Concepcion","pm_2_5":18,"latitude":"36.166667","longitude":"-5.333333","iso2":"ES","cartodb_id":200,"created_at":"2014-05-19T13:14:05Z","updated_at":"2014-05-30T01:06:11Z"}},{"type":"Feature","geometry":{"type":"Point","coordinates":[90.2201,25.5198]},"properties":{"country":"India","city_station":"Tura","pm_2_5":25,"latitude":"25.5198","longitude":"90.2201","iso2":"IN","cartodb_id":201,"created_at":"2014-05-19T13:14:05Z","updated_at":"2014-05-30T01:06:11Z"}},{"type":"Feature","geometry":{"type":"Point","coordinates":[94.105556,27.241389]},"properties":{"country":"India","city_station":"North Lakhimpur Town","pm_2_5":32,"latitude":"27.241389","longitude":"94.105556","iso2":"IN","cartodb_id":202,"created_at":"2014-05-19T13:14:05Z","updated_at":"2014-05-30T01:06:11Z"}},{"type":"Feature","geometry":{"type":"Point","coordinates":[81.4333,21.2167]},"properties":{"country":"India","city_station":"Bhilai","pm_2_5":35,"latitude":"21.2167","longitude":"81.4333","iso2":"IN","cartodb_id":203,"created_at":"2014-05-19T13:14:05Z","updated_at":"2014-05-30T01:06:11Z"}},{"type":"Feature","geometry":{"type":"Point","coordinates":[23.82,38.011667]},"properties":{"country":"Greece","city_station":"Agia Paraskevi","pm_2_5":17,"latitude":"38.011667","longitude":"23.82","iso2":"GR","cartodb_id":204,"created_at":"2014-05-19T13:14:05Z","updated_at":"2014-05-30T01:06:11Z"}},{"type":"Feature","geometry":{"type":"Point","coordinates":[12.1333,54.0833]},"properties":{"country":"Germany","city_station":"Rostock","pm_2_5":15,"latitude":"54.0833","longitude":"12.1333","iso2":"DE","cartodb_id":205,"created_at":"2014-05-19T13:14:05Z","updated_at":"2014-05-30T01:06:11Z"}},{"type":"Feature","geometry":{"type":"Point","coordinates":[-47.458056,-23.501667]},"properties":{"country":"Brazil","city_station":"Sorocaba","pm_2_5":17,"latitude":"-23.501667","longitude":"-47.458056","iso2":"BR","cartodb_id":206,"created_at":"2014-05-19T13:14:05Z","updated_at":"2014-05-30T01:06:11Z"}},{"type":"Feature","geometry":{"type":"Point","coordinates":[-96.8284,46.8543]},"properties":{"country":"United States of America","city_station":"Fargo","pm_2_5":8,"latitude":"46.8543","longitude":"-96.8284","iso2":"US","cartodb_id":207,"created_at":"2014-05-19T13:14:05Z","updated_at":"2014-05-30T01:06:11Z"}},{"type":"Feature","geometry":{"type":"Point","coordinates":[-118.4667,49.05]},"properties":{"country":"Canada","city_station":"Grand Forks","pm_2_5":6,"latitude":"49.05","longitude":"-118.4667","iso2":"CA","cartodb_id":208,"created_at":"2014-05-19T13:14:05Z","updated_at":"2014-05-30T01:06:11Z"}},{"type":"Feature","geometry":{"type":"Point","coordinates":[19.044444,49.8225]},"properties":{"country":"Poland","city_station":"Bielsko-Biala","pm_2_5":34,"latitude":"49.8225","longitude":"19.044444","iso2":"PL","cartodb_id":209,"created_at":"2014-05-19T13:14:05Z","updated_at":"2014-05-30T01:06:11Z"}},{"type":"Feature","geometry":{"type":"Point","coordinates":[128.2119,37.1361]},"properties":{"country":"South Korea","city_station":"Jecheon","pm_2_5":27,"latitude":"37.1361","longitude":"128.2119","iso2":"KR","cartodb_id":210,"created_at":"2014-05-19T13:14:05Z","updated_at":"2014-05-30T01:06:11Z"}},{"type":"Feature","geometry":{"type":"Point","coordinates":[-81.328333,35.737778]},"properties":{"country":"United States of America","city_station":"Hickory","pm_2_5":10,"latitude":"35.737778","longitude":"-81.328333","iso2":"US","cartodb_id":211,"created_at":"2014-05-19T13:14:05Z","updated_at":"2014-05-30T01:06:11Z"}},{"type":"Feature","geometry":{"type":"Point","coordinates":[102.7183,25.0389]},"properties":{"country":"China","city_station":"Kunming","pm_2_5":33,"latitude":"25.0389","longitude":"102.7183","iso2":"CN","cartodb_id":212,"created_at":"2014-05-19T13:14:05Z","updated_at":"2014-05-30T01:06:11Z"}},{"type":"Feature","geometry":{"type":"Point","coordinates":[16.5,50.85]},"properties":{"country":"Poland","city_station":"Swidnica","pm_2_5":28,"latitude":"50.85","longitude":"16.5","iso2":"PL","cartodb_id":213,"created_at":"2014-05-19T13:14:05Z","updated_at":"2014-05-30T01:06:11Z"}},{"type":"Feature","geometry":{"type":"Point","coordinates":[4.7161,49.7719]},"properties":{"country":"France","city_station":"Charleville-Mezieres","pm_2_5":18,"latitude":"49.7719","longitude":"4.7161","iso2":"FR","cartodb_id":214,"created_at":"2014-05-19T13:14:05Z","updated_at":"2014-05-30T01:06:11Z"}},{"type":"Feature","geometry":{"type":"Point","coordinates":[22.9331,54.0994]},"properties":{"country":"Poland","city_station":"Suwalki","pm_2_5":15,"latitude":"54.0994","longitude":"22.9331","iso2":"PL","cartodb_id":215,"created_at":"2014-05-19T13:14:05Z","updated_at":"2014-05-30T01:06:11Z"}},{"type":"Feature","geometry":{"type":"Point","coordinates":[-71.8028,42.2618]},"properties":{"country":"United States of America","city_station":"Worcester","pm_2_5":9,"latitude":"42.2618","longitude":"-71.8028","iso2":"US","cartodb_id":216,"created_at":"2014-05-19T13:14:05Z","updated_at":"2014-05-30T01:06:11Z"}},{"type":"Feature","geometry":{"type":"Point","coordinates":[-86.5292,39.1622]},"properties":{"country":"United States of America","city_station":"Bloomington-IN","pm_2_5":10,"latitude":"39.1622","longitude":"-86.5292","iso2":"US","cartodb_id":217,"created_at":"2014-05-19T13:14:05Z","updated_at":"2014-05-30T01:06:11Z"}},{"type":"Feature","geometry":{"type":"Point","coordinates":[10.633333,44.7]},"properties":{"country":"Italy","city_station":"Reggio nell Emilia","pm_2_5":25,"latitude":"44.7","longitude":"10.633333","iso2":"IT","cartodb_id":218,"created_at":"2014-05-19T13:14:05Z","updated_at":"2014-05-30T01:06:11Z"}},{"type":"Feature","geometry":{"type":"Point","coordinates":[12.533333,52.416667]},"properties":{"country":"Germany","city_station":"Brandenburg an der Havel","pm_2_5":19,"latitude":"52.416667","longitude":"12.533333","iso2":"DE","cartodb_id":219,"created_at":"2014-05-19T13:14:05Z","updated_at":"2014-05-30T01:06:11Z"}},{"type":"Feature","geometry":{"type":"Point","coordinates":[-2.6,53.3833]},"properties":{"country":"United Kingdom","city_station":"Warrington","pm_2_5":13,"latitude":"53.3833","longitude":"-2.6","iso2":"GB","cartodb_id":220,"created_at":"2014-05-19T13:14:05Z","updated_at":"2014-05-30T01:06:11Z"}},{"type":"Feature","geometry":{"type":"Point","coordinates":[10.2333,43.8667]},"properties":{"country":"Italy","city_station":"Viareggio","pm_2_5":21,"latitude":"43.8667","longitude":"10.2333","iso2":"IT","cartodb_id":221,"created_at":"2014-05-19T13:14:05Z","updated_at":"2014-05-30T01:06:11Z"}},{"type":"Feature","geometry":{"type":"Point","coordinates":[9.5,51.3167]},"properties":{"country":"Germany","city_station":"Kassel","pm_2_5":16,"latitude":"51.3167","longitude":"9.5","iso2":"DE","cartodb_id":222,"created_at":"2014-05-19T13:14:05Z","updated_at":"2014-05-30T01:06:11Z"}},{"type":"Feature","geometry":{"type":"Point","coordinates":[77.0289,29.9586]},"properties":{"country":"India","city_station":"Gobindgarh","pm_2_5":69,"latitude":"29.9586","longitude":"77.0289","iso2":"IN","cartodb_id":223,"created_at":"2014-05-19T13:14:05Z","updated_at":"2014-05-30T01:06:11Z"}},{"type":"Feature","geometry":{"type":"Point","coordinates":[8.95,44.4167]},"properties":{"country":"Italy","city_station":"Genova","pm_2_5":16,"latitude":"44.4167","longitude":"8.95","iso2":"IT","cartodb_id":224,"created_at":"2014-05-19T13:14:05Z","updated_at":"2014-05-30T01:06:11Z"}},{"type":"Feature","geometry":{"type":"Point","coordinates":[-124.163611,40.801944]},"properties":{"country":"United States of America","city_station":"Eureka","pm_2_5":7,"latitude":"40.801944","longitude":"-124.163611","iso2":"US","cartodb_id":225,"created_at":"2014-05-19T13:14:05Z","updated_at":"2014-05-30T01:06:11Z"}},{"type":"Feature","geometry":{"type":"Point","coordinates":[-78.849444,42.904722]},"properties":{"country":"United States of America","city_station":"Buffalo","pm_2_5":9,"latitude":"42.904722","longitude":"-78.849444","iso2":"US","cartodb_id":226,"created_at":"2014-05-19T13:14:05Z","updated_at":"2014-05-30T01:06:11Z"}},{"type":"Feature","geometry":{"type":"Point","coordinates":[-95.383056,29.762778]},"properties":{"country":"United States of America","city_station":"Houston","pm_2_5":13,"latitude":"29.762778","longitude":"-95.383056","iso2":"US","cartodb_id":227,"created_at":"2014-05-19T13:14:05Z","updated_at":"2014-05-30T01:06:11Z"}},{"type":"Feature","geometry":{"type":"Point","coordinates":[48.355833,33.487778]},"properties":{"country":"Iran","city_station":"Khorramabad","pm_2_5":102,"latitude":"33.487778","longitude":"48.355833","iso2":"IR","cartodb_id":228,"created_at":"2014-05-19T13:14:05Z","updated_at":"2014-05-30T01:06:11Z"}},{"type":"Feature","geometry":{"type":"Point","coordinates":[113.5833,24.8]},"properties":{"country":"China","city_station":"Shaoguan","pm_2_5":34,"latitude":"24.8","longitude":"113.5833","iso2":"CN","cartodb_id":229,"created_at":"2014-05-19T13:14:05Z","updated_at":"2014-05-30T01:06:11Z"}},{"type":"Feature","geometry":{"type":"Point","coordinates":[50.583333,26.183333]},"properties":{"country":"Bahrain","city_station":"Nabih Saleh","pm_2_5":58,"latitude":"26.183333","longitude":"50.583333","iso2":"BH","cartodb_id":230,"created_at":"2014-05-19T13:14:05Z","updated_at":"2014-05-30T01:06:11Z"}},{"type":"Feature","geometry":{"type":"Point","coordinates":[122.99,41.1236]},"properties":{"country":"China","city_station":"Anshan","pm_2_5":48,"latitude":"41.1236","longitude":"122.99","iso2":"CN","cartodb_id":231,"created_at":"2014-05-19T13:14:05Z","updated_at":"2014-05-30T01:06:11Z"}},{"type":"Feature","geometry":{"type":"Point","coordinates":[43.7408,37.5744]},"properties":{"country":"Turkey","city_station":"Hakkari","pm_2_5":47,"latitude":"37.5744","longitude":"43.7408","iso2":"TR","cartodb_id":232,"created_at":"2014-05-19T13:14:05Z","updated_at":"2014-05-30T01:06:11Z"}},{"type":"Feature","geometry":{"type":"Point","coordinates":[34.986647,31.745686]},"properties":{"country":"Israel","city_station":"Beit Shemesh","pm_2_5":45,"latitude":"31.745686","longitude":"34.986647","iso2":"IL","cartodb_id":233,"created_at":"2014-05-19T13:14:05Z","updated_at":"2014-05-30T01:06:11Z"}},{"type":"Feature","geometry":{"type":"Point","coordinates":[-78.1167,0.35]},"properties":{"country":"Ecuador","city_station":"Ibarra","pm_2_5":9,"latitude":"0.35","longitude":"-78.1167","iso2":"EC","cartodb_id":234,"created_at":"2014-05-19T13:14:05Z","updated_at":"2014-05-30T01:06:11Z"}},{"type":"Feature","geometry":{"type":"Point","coordinates":[12.9167,50.8333]},"properties":{"country":"Germany","city_station":"Chemnitz","pm_2_5":16,"latitude":"50.8333","longitude":"12.9167","iso2":"DE","cartodb_id":235,"created_at":"2014-05-19T13:14:05Z","updated_at":"2014-05-30T01:06:11Z"}},{"type":"Feature","geometry":{"type":"Point","coordinates":[57.471694,-20.239806]},"properties":{"country":"Mauritius","city_station":"Beau Bassin","pm_2_5":66,"latitude":"-20.239806","longitude":"57.471694","iso2":"MU","cartodb_id":236,"created_at":"2014-05-19T13:14:05Z","updated_at":"2014-05-30T01:06:11Z"}},{"type":"Feature","geometry":{"type":"Point","coordinates":[-122.416667,37.783333]},"properties":{"country":"United States of America","city_station":"San Francisco","pm_2_5":10,"latitude":"37.783333","longitude":"-122.416667","iso2":"US","cartodb_id":237,"created_at":"2014-05-19T13:14:05Z","updated_at":"2014-05-30T01:06:11Z"}},{"type":"Feature","geometry":{"type":"Point","coordinates":[26.25,47.6333]},"properties":{"country":"Romania","city_station":"Suceava","pm_2_5":21,"latitude":"47.6333","longitude":"26.25","iso2":"RO","cartodb_id":238,"created_at":"2014-05-19T13:14:05Z","updated_at":"2014-05-30T01:06:11Z"}},{"type":"Feature","geometry":{"type":"Point","coordinates":[127.5892,34.9753]},"properties":{"country":"South Korea","city_station":"Gwangyang","pm_2_5":21,"latitude":"34.9753","longitude":"127.5892","iso2":"KR","cartodb_id":239,"created_at":"2014-05-19T13:14:05Z","updated_at":"2014-05-30T01:06:11Z"}},{"type":"Feature","geometry":{"type":"Point","coordinates":[-49.4167,-25.5833]},"properties":{"country":"Brazil","city_station":"Araucaria","pm_2_5":17,"latitude":"-25.5833","longitude":"-49.4167","iso2":"BR","cartodb_id":240,"created_at":"2014-05-19T13:14:05Z","updated_at":"2014-05-30T01:06:11Z"}},{"type":"Feature","geometry":{"type":"Point","coordinates":[-0.3667,39.4667]},"properties":{"country":"Spain","city_station":"Valencia","pm_2_5":14,"latitude":"39.4667","longitude":"-0.3667","iso2":"ES","cartodb_id":241,"created_at":"2014-05-19T13:14:05Z","updated_at":"2014-05-30T01:06:11Z"}},{"type":"Feature","geometry":{"type":"Point","coordinates":[38.3167,38.3502]},"properties":{"country":"Turkey","city_station":"Malatya","pm_2_5":49,"latitude":"38.3502","longitude":"38.3167","iso2":"TR","cartodb_id":242,"created_at":"2014-05-19T13:14:05Z","updated_at":"2014-05-30T01:06:11Z"}},{"type":"Feature","geometry":{"type":"Point","coordinates":[176.8333,-39.65]},"properties":{"country":"New Zealand","city_station":"Hastings","pm_2_5":7,"latitude":"-39.65","longitude":"176.8333","iso2":"NZ","cartodb_id":243,"created_at":"2014-05-19T13:14:05Z","updated_at":"2014-05-30T01:06:11Z"}},{"type":"Feature","geometry":{"type":"Point","coordinates":[-122.431,40.1368]},"properties":{"country":"United States of America","city_station":"Red Bluff","pm_2_5":8,"latitude":"40.1368","longitude":"-122.431","iso2":"US","cartodb_id":244,"created_at":"2014-05-19T13:14:05Z","updated_at":"2014-05-30T01:06:11Z"}},{"type":"Feature","geometry":{"type":"Point","coordinates":[-1.6743,48.112]},"properties":{"country":"France","city_station":"Rennes","pm_2_5":15,"latitude":"48.112","longitude":"-1.6743","iso2":"FR","cartodb_id":245,"created_at":"2014-05-19T13:14:05Z","updated_at":"2014-05-30T01:06:11Z"}},{"type":"Feature","geometry":{"type":"Point","coordinates":[-2.9833,51.5833]},"properties":{"country":"United Kingdom","city_station":"Newport","pm_2_5":12,"latitude":"51.5833","longitude":"-2.9833","iso2":"GB","cartodb_id":246,"created_at":"2014-05-19T13:14:05Z","updated_at":"2014-05-30T01:06:11Z"}},{"type":"Feature","geometry":{"type":"Point","coordinates":[9.1833,48.7667]},"properties":{"country":"Germany","city_station":"Stuttgart","pm_2_5":15,"latitude":"48.7667","longitude":"9.1833","iso2":"DE","cartodb_id":247,"created_at":"2014-05-19T13:14:05Z","updated_at":"2014-05-30T01:06:11Z"}},{"type":"Feature","geometry":{"type":"Point","coordinates":[17.95,50.6667]},"properties":{"country":"Poland","city_station":"Opole","pm_2_5":25,"latitude":"50.6667","longitude":"17.95","iso2":"PL","cartodb_id":248,"created_at":"2014-05-19T13:14:05Z","updated_at":"2014-05-30T01:06:11Z"}},{"type":"Feature","geometry":{"type":"Point","coordinates":[8.05,52.283333]},"properties":{"country":"Germany","city_station":"Osnabruck","pm_2_5":15,"latitude":"52.283333","longitude":"8.05","iso2":"DE","cartodb_id":249,"created_at":"2014-05-19T13:14:05Z","updated_at":"2014-05-30T01:06:11Z"}},{"type":"Feature","geometry":{"type":"Point","coordinates":[78.05,15.8333]},"properties":{"country":"India","city_station":"Kurnool","pm_2_5":32,"latitude":"15.8333","longitude":"78.05","iso2":"IN","cartodb_id":250,"created_at":"2014-05-19T13:14:05Z","updated_at":"2014-05-30T01:06:11Z"}},{"type":"Feature","geometry":{"type":"Point","coordinates":[128.8961,37.7556]},"properties":{"country":"South Korea","city_station":"Gangneung","pm_2_5":21,"latitude":"37.7556","longitude":"128.8961","iso2":"KR","cartodb_id":251,"created_at":"2014-05-19T13:14:05Z","updated_at":"2014-05-30T01:06:11Z"}},{"type":"Feature","geometry":{"type":"Point","coordinates":[8.8,53.0833]},"properties":{"country":"Germany","city_station":"Bremen","pm_2_5":16,"latitude":"53.0833","longitude":"8.8","iso2":"DE","cartodb_id":252,"created_at":"2014-05-19T13:14:05Z","updated_at":"2014-05-30T01:06:11Z"}},{"type":"Feature","geometry":{"type":"Point","coordinates":[-126.65,54.4]},"properties":{"country":"Canada","city_station":"Houston","pm_2_5":6,"latitude":"54.4","longitude":"-126.65","iso2":"CA","cartodb_id":253,"created_at":"2014-05-19T13:14:05Z","updated_at":"2014-05-30T01:06:11Z"}},{"type":"Feature","geometry":{"type":"Point","coordinates":[-94.166667,45.55]},"properties":{"country":"United States of America","city_station":"St. Cloud","pm_2_5":8,"latitude":"45.55","longitude":"-94.166667","iso2":"US","cartodb_id":254,"created_at":"2014-05-19T13:14:05Z","updated_at":"2014-05-30T01:06:11Z"}},{"type":"Feature","geometry":{"type":"Point","coordinates":[-85.4679,40.2369]},"properties":{"country":"United States of America","city_station":"Muncie","pm_2_5":10,"latitude":"40.2369","longitude":"-85.4679","iso2":"US","cartodb_id":255,"created_at":"2014-05-19T13:14:05Z","updated_at":"2014-05-30T01:06:11Z"}},{"type":"Feature","geometry":{"type":"Point","coordinates":[113.3012,33.7385]},"properties":{"country":"China","city_station":"Pingdingshan","pm_2_5":43,"latitude":"33.7385","longitude":"113.3012","iso2":"CN","cartodb_id":256,"created_at":"2014-05-19T13:14:05Z","updated_at":"2014-05-30T01:06:11Z"}},{"type":"Feature","geometry":{"type":"Point","coordinates":[6.55,53.2167]},"properties":{"country":"Netherlands","city_station":"Groningen","pm_2_5":14,"latitude":"53.2167","longitude":"6.55","iso2":"NL","cartodb_id":257,"created_at":"2014-05-19T13:14:05Z","updated_at":"2014-05-30T01:06:11Z"}},{"type":"Feature","geometry":{"type":"Point","coordinates":[7.3479,47.7381]},"properties":{"country":"France","city_station":"Mulhouse","pm_2_5":18,"latitude":"47.7381","longitude":"7.3479","iso2":"FR","cartodb_id":258,"created_at":"2014-05-19T13:14:05Z","updated_at":"2014-05-30T01:06:11Z"}},{"type":"Feature","geometry":{"type":"Point","coordinates":[79.5833,18]},"properties":{"country":"India","city_station":"Warangal","pm_2_5":28,"latitude":"18","longitude":"79.5833","iso2":"IN","cartodb_id":259,"created_at":"2014-05-19T13:14:05Z","updated_at":"2014-05-30T01:06:11Z"}},{"type":"Feature","geometry":{"type":"Point","coordinates":[-71.063611,42.358056]},"properties":{"country":"United States of America","city_station":"Boston","pm_2_5":10,"latitude":"42.358056","longitude":"-71.063611","iso2":"US","cartodb_id":260,"created_at":"2014-05-19T13:14:05Z","updated_at":"2014-05-30T01:06:11Z"}},{"type":"Feature","geometry":{"type":"Point","coordinates":[-72.923611,41.31]},"properties":{"country":"United States of America","city_station":"New Haven","pm_2_5":9,"latitude":"41.31","longitude":"-72.923611","iso2":"US","cartodb_id":261,"created_at":"2014-05-19T13:14:05Z","updated_at":"2014-05-30T01:06:11Z"}},{"type":"Feature","geometry":{"type":"Point","coordinates":[-114.5157,32.7244]},"properties":{"country":"United States of America","city_station":"Yuma","pm_2_5":9,"latitude":"32.7244","longitude":"-114.5157","iso2":"US","cartodb_id":262,"created_at":"2014-05-19T13:14:05Z","updated_at":"2014-05-30T01:06:11Z"}},{"type":"Feature","geometry":{"type":"Point","coordinates":[34.9892,32.8156]},"properties":{"country":"Israel","city_station":"Haifa","pm_2_5":22,"latitude":"32.8156","longitude":"34.9892","iso2":"IL","cartodb_id":263,"created_at":"2014-05-19T13:14:05Z","updated_at":"2014-05-30T01:06:11Z"}},{"type":"Feature","geometry":{"type":"Point","coordinates":[-122.8178,44.5253]},"properties":{"country":"United States of America","city_station":"Lebanon-OR","pm_2_5":14,"latitude":"44.5253","longitude":"-122.8178","iso2":"US","cartodb_id":264,"created_at":"2014-05-19T13:14:05Z","updated_at":"2014-05-30T01:06:11Z"}},{"type":"Feature","geometry":{"type":"Point","coordinates":[-110.1831,54.465]},"properties":{"country":"Canada","city_station":"Cold Lake","pm_2_5":7,"latitude":"54.465","longitude":"-110.1831","iso2":"CA","cartodb_id":265,"created_at":"2014-05-19T13:14:05Z","updated_at":"2014-05-30T01:06:11Z"}},{"type":"Feature","geometry":{"type":"Point","coordinates":[-80.65,41.1]},"properties":{"country":"United States of America","city_station":"Youngstown","pm_2_5":14,"latitude":"41.1","longitude":"-80.65","iso2":"US","cartodb_id":266,"created_at":"2014-05-19T13:14:05Z","updated_at":"2014-05-30T01:06:11Z"}},{"type":"Feature","geometry":{"type":"Point","coordinates":[-3.497778,40.461389]},"properties":{"country":"Spain","city_station":"Torrejon de Ardoz","pm_2_5":13,"latitude":"40.461389","longitude":"-3.497778","iso2":"ES","cartodb_id":267,"created_at":"2014-05-19T13:14:05Z","updated_at":"2014-05-30T01:06:11Z"}},{"type":"Feature","geometry":{"type":"Point","coordinates":[126.9156,35.1547]},"properties":{"country":"South Korea","city_station":"Gwangju","pm_2_5":21,"latitude":"35.1547","longitude":"126.9156","iso2":"KR","cartodb_id":268,"created_at":"2014-05-19T13:14:05Z","updated_at":"2014-05-30T01:06:11Z"}},{"type":"Feature","geometry":{"type":"Point","coordinates":[9.1833,48.9]},"properties":{"country":"Germany","city_station":"Ludwigsburg","pm_2_5":13,"latitude":"48.9","longitude":"9.1833","iso2":"DE","cartodb_id":269,"created_at":"2014-05-19T13:14:05Z","updated_at":"2014-05-30T01:06:11Z"}},{"type":"Feature","geometry":{"type":"Point","coordinates":[-73.566667,45.5]},"properties":{"country":"Canada","city_station":"Montreal","pm_2_5":11,"latitude":"45.5","longitude":"-73.566667","iso2":"CA","cartodb_id":270,"created_at":"2014-05-19T13:14:05Z","updated_at":"2014-05-30T01:06:11Z"}},{"type":"Feature","geometry":{"type":"Point","coordinates":[15.7758,50.0278]},"properties":{"country":"Czech Republic","city_station":"Pardubice","pm_2_5":22,"latitude":"50.0278","longitude":"15.7758","iso2":"CZ","cartodb_id":271,"created_at":"2014-05-19T13:14:05Z","updated_at":"2014-05-30T01:06:11Z"}},{"type":"Feature","geometry":{"type":"Point","coordinates":[57.4989,-20.164386]},"properties":{"country":"Mauritius","city_station":"Port Louis","pm_2_5":11,"latitude":"-20.164386","longitude":"57.4989","iso2":"MU","cartodb_id":272,"created_at":"2014-05-19T13:14:05Z","updated_at":"2014-05-30T01:06:11Z"}},{"type":"Feature","geometry":{"type":"Point","coordinates":[118.0819,24.4798]},"properties":{"country":"China","city_station":"Xiamen","pm_2_5":30,"latitude":"24.4798","longitude":"118.0819","iso2":"CN","cartodb_id":273,"created_at":"2014-05-19T13:14:05Z","updated_at":"2014-05-30T01:06:11Z"}},{"type":"Feature","geometry":{"type":"Point","coordinates":[106.206389,50.236389]},"properties":{"country":"Mongolia","city_station":"Sukhbaatar","pm_2_5":18,"latitude":"50.236389","longitude":"106.206389","iso2":"MN","cartodb_id":274,"created_at":"2014-05-19T13:14:05Z","updated_at":"2014-05-30T01:06:11Z"}},{"type":"Feature","geometry":{"type":"Point","coordinates":[7.9333,48.4833]},"properties":{"country":"Germany","city_station":"Offenburg","pm_2_5":15,"latitude":"48.4833","longitude":"7.9333","iso2":"DE","cartodb_id":275,"created_at":"2014-05-19T13:14:05Z","updated_at":"2014-05-30T01:06:11Z"}},{"type":"Feature","geometry":{"type":"Point","coordinates":[-91.5729,44.834]},"properties":{"country":"United States of America","city_station":"Eau Claire","pm_2_5":8,"latitude":"44.834","longitude":"-91.5729","iso2":"US","cartodb_id":276,"created_at":"2014-05-19T13:14:05Z","updated_at":"2014-05-30T01:06:11Z"}},{"type":"Feature","geometry":{"type":"Point","coordinates":[126.5219,33.5097]},"properties":{"country":"South Korea","city_station":"Jeju","pm_2_5":23,"latitude":"33.5097","longitude":"126.5219","iso2":"KR","cartodb_id":277,"created_at":"2014-05-19T13:14:05Z","updated_at":"2014-05-30T01:06:11Z"}},{"type":"Feature","geometry":{"type":"Point","coordinates":[16.2833,50.7667]},"properties":{"country":"Poland","city_station":"Walbrzych","pm_2_5":22,"latitude":"50.7667","longitude":"16.2833","iso2":"PL","cartodb_id":278,"created_at":"2014-05-19T13:14:05Z","updated_at":"2014-05-30T01:06:11Z"}},{"type":"Feature","geometry":{"type":"Point","coordinates":[-123.4197,45.1016]},"properties":{"country":"United States of America","city_station":"Sheridan","pm_2_5":8,"latitude":"45.1016","longitude":"-123.4197","iso2":"US","cartodb_id":279,"created_at":"2014-05-19T13:14:05Z","updated_at":"2014-05-30T01:06:11Z"}},{"type":"Feature","geometry":{"type":"Point","coordinates":[8.683333,50.116667]},"properties":{"country":"Germany","city_station":"Frankfurt am Main","pm_2_5":18,"latitude":"50.116667","longitude":"8.683333","iso2":"DE","cartodb_id":280,"created_at":"2014-05-19T13:14:05Z","updated_at":"2014-05-30T01:06:11Z"}},{"type":"Feature","geometry":{"type":"Point","coordinates":[4.8528,46.7806]},"properties":{"country":"France","city_station":"Chalon-sur-Saone","pm_2_5":17,"latitude":"46.7806","longitude":"4.8528","iso2":"FR","cartodb_id":281,"created_at":"2014-05-19T13:14:05Z","updated_at":"2014-05-30T01:06:11Z"}},{"type":"Feature","geometry":{"type":"Point","coordinates":[174.85,-41.1333]},"properties":{"country":"New Zealand","city_station":"Porirua","pm_2_5":6,"latitude":"-41.1333","longitude":"174.85","iso2":"NZ","cartodb_id":282,"created_at":"2014-05-19T13:14:05Z","updated_at":"2014-05-30T01:06:11Z"}},{"type":"Feature","geometry":{"type":"Point","coordinates":[11.8833,45.4167]},"properties":{"country":"Italy","city_station":"Padova","pm_2_5":34,"latitude":"45.4167","longitude":"11.8833","iso2":"IT","cartodb_id":283,"created_at":"2014-05-19T13:14:05Z","updated_at":"2014-05-30T01:06:11Z"}},{"type":"Feature","geometry":{"type":"Point","coordinates":[138.489722,35.015833]},"properties":{"country":"Japan","city_station":"Shimuzu-ku/Shizuoka","pm_2_5":6,"latitude":"35.015833","longitude":"138.489722","iso2":"JP","cartodb_id":284,"created_at":"2014-05-19T13:14:05Z","updated_at":"2014-05-30T01:06:11Z"}},{"type":"Feature","geometry":{"type":"Point","coordinates":[-86.6991,36.2558]},"properties":{"country":"United States of America","city_station":"Madison","pm_2_5":9,"latitude":"36.2558","longitude":"-86.6991","iso2":"US","cartodb_id":285,"created_at":"2014-05-19T13:14:05Z","updated_at":"2014-05-30T01:06:11Z"}},{"type":"Feature","geometry":{"type":"Point","coordinates":[14.3333,51.7667]},"properties":{"country":"Germany","city_station":"Cottbus","pm_2_5":20,"latitude":"51.7667","longitude":"14.3333","iso2":"DE","cartodb_id":286,"created_at":"2014-05-19T13:14:05Z","updated_at":"2014-05-30T01:06:11Z"}},{"type":"Feature","geometry":{"type":"Point","coordinates":[17.2297,40.4761]},"properties":{"country":"Italy","city_station":"Taranto","pm_2_5":17,"latitude":"40.4761","longitude":"17.2297","iso2":"IT","cartodb_id":287,"created_at":"2014-05-19T13:14:05Z","updated_at":"2014-05-30T01:06:11Z"}},{"type":"Feature","geometry":{"type":"Point","coordinates":[-119.4833,49.9]},"properties":{"country":"Canada","city_station":"Kelowna","pm_2_5":4,"latitude":"49.9","longitude":"-119.4833","iso2":"CA","cartodb_id":288,"created_at":"2014-05-19T13:14:05Z","updated_at":"2014-05-30T01:06:11Z"}},{"type":"Feature","geometry":{"type":"Point","coordinates":[23.5833,47.6667]},"properties":{"country":"Romania","city_station":"Baia Mare","pm_2_5":20,"latitude":"47.6667","longitude":"23.5833","iso2":"RO","cartodb_id":289,"created_at":"2014-05-19T13:14:05Z","updated_at":"2014-05-30T01:06:11Z"}},{"type":"Feature","geometry":{"type":"Point","coordinates":[-72.5375,46.3481]},"properties":{"country":"Canada","city_station":"Trois-Rivieres","pm_2_5":11,"latitude":"46.3481","longitude":"-72.5375","iso2":"CA","cartodb_id":290,"created_at":"2014-05-19T13:14:05Z","updated_at":"2014-05-30T01:06:11Z"}},{"type":"Feature","geometry":{"type":"Point","coordinates":[120.3719,36.0986]},"properties":{"country":"China","city_station":"Qingdao","pm_2_5":45,"latitude":"36.0986","longitude":"120.3719","iso2":"CN","cartodb_id":291,"created_at":"2014-05-19T13:14:05Z","updated_at":"2014-05-30T01:06:11Z"}},{"type":"Feature","geometry":{"type":"Point","coordinates":[100.155556,49.635556]},"properties":{"country":"Mongolia","city_station":"Murun","pm_2_5":35,"latitude":"49.635556","longitude":"100.155556","iso2":"MN","cartodb_id":292,"created_at":"2014-05-19T13:14:05Z","updated_at":"2014-05-30T01:06:11Z"}},{"type":"Feature","geometry":{"type":"Point","coordinates":[10,53.55]},"properties":{"country":"Germany","city_station":"Hamburg","pm_2_5":17,"latitude":"53.55","longitude":"10","iso2":"DE","cartodb_id":293,"created_at":"2014-05-19T13:14:05Z","updated_at":"2014-05-30T01:06:11Z"}},{"type":"Feature","geometry":{"type":"Point","coordinates":[74.8656,31.6331]},"properties":{"country":"India","city_station":"Amritsar","pm_2_5":92,"latitude":"31.6331","longitude":"74.8656","iso2":"IN","cartodb_id":294,"created_at":"2014-05-19T13:14:05Z","updated_at":"2014-05-30T01:06:11Z"}},{"type":"Feature","geometry":{"type":"Point","coordinates":[-15.5833,28.0667]},"properties":{"country":"Spain","city_station":"San Fernando","pm_2_5":12,"latitude":"28.0667","longitude":"-15.5833","iso2":"ES","cartodb_id":295,"created_at":"2014-05-19T13:14:05Z","updated_at":"2014-05-30T01:06:11Z"}},{"type":"Feature","geometry":{"type":"Point","coordinates":[-107.8488,37.4509]},"properties":{"country":"United States of America","city_station":"Durango","pm_2_5":4,"latitude":"37.4509","longitude":"-107.8488","iso2":"US","cartodb_id":296,"created_at":"2014-05-19T13:14:05Z","updated_at":"2014-05-30T01:06:11Z"}},{"type":"Feature","geometry":{"type":"Point","coordinates":[127.03448,37.743164]},"properties":{"country":"South Korea","city_station":"Uijeongbu","pm_2_5":28,"latitude":"37.743164","longitude":"127.03448","iso2":"KR","cartodb_id":297,"created_at":"2014-05-19T13:14:05Z","updated_at":"2014-05-30T01:06:11Z"}},{"type":"Feature","geometry":{"type":"Point","coordinates":[16.6333,49.2]},"properties":{"country":"Czech Republic","city_station":"Brno","pm_2_5":21,"latitude":"49.2","longitude":"16.6333","iso2":"CZ","cartodb_id":298,"created_at":"2014-05-19T13:14:05Z","updated_at":"2014-05-30T01:06:11Z"}},{"type":"Feature","geometry":{"type":"Point","coordinates":[-94.160912,36.076379]},"properties":{"country":"United States of America","city_station":"Fayetteville-AR","pm_2_5":10,"latitude":"36.076379","longitude":"-94.160912","iso2":"US","cartodb_id":299,"created_at":"2014-05-19T13:14:05Z","updated_at":"2014-05-30T01:06:11Z"}},{"type":"Feature","geometry":{"type":"Point","coordinates":[25.5694,41.9403]},"properties":{"country":"Bulgaria","city_station":"Haskovo","pm_2_5":35,"latitude":"41.9403","longitude":"25.5694","iso2":"BG","cartodb_id":300,"created_at":"2014-05-19T13:14:05Z","updated_at":"2014-05-30T01:06:11Z"}},{"type":"Feature","geometry":{"type":"Point","coordinates":[106.7167,26.5833]},"properties":{"country":"China","city_station":"Guiyang","pm_2_5":34,"latitude":"26.5833","longitude":"106.7167","iso2":"CN","cartodb_id":301,"created_at":"2014-05-19T13:14:05Z","updated_at":"2014-05-30T01:06:11Z"}},{"type":"Feature","geometry":{"type":"Point","coordinates":[-79.819444,36.08]},"properties":{"country":"United States of America","city_station":"Greensboro","pm_2_5":9,"latitude":"36.08","longitude":"-79.819444","iso2":"US","cartodb_id":302,"created_at":"2014-05-19T13:14:05Z","updated_at":"2014-05-30T01:06:11Z"}},{"type":"Feature","geometry":{"type":"Point","coordinates":[117.1767,39.1422]},"properties":{"country":"China","city_station":"Tianjin","pm_2_5":44,"latitude":"39.1422","longitude":"117.1767","iso2":"CN","cartodb_id":303,"created_at":"2014-05-19T13:14:05Z","updated_at":"2014-05-30T01:06:11Z"}},{"type":"Feature","geometry":{"type":"Point","coordinates":[24.35,55.733333]},"properties":{"country":"Lithuania","city_station":"Panevezys","pm_2_5":12,"latitude":"55.733333","longitude":"24.35","iso2":"LT","cartodb_id":304,"created_at":"2014-05-19T13:14:05Z","updated_at":"2014-05-30T01:06:11Z"}},{"type":"Feature","geometry":{"type":"Point","coordinates":[-73.916667,41.7]},"properties":{"country":"United States of America","city_station":"Poughskeepie","pm_2_5":8,"latitude":"41.7","longitude":"-73.916667","iso2":"US","cartodb_id":305,"created_at":"2014-05-19T13:14:05Z","updated_at":"2014-05-30T01:06:11Z"}},{"type":"Feature","geometry":{"type":"Point","coordinates":[96.0833,22]},"properties":{"country":"Myanmar","city_station":"Mandalay","pm_2_5":30,"latitude":"22","longitude":"96.0833","iso2":"MM","cartodb_id":306,"created_at":"2014-05-19T13:14:05Z","updated_at":"2014-05-30T01:06:11Z"}},{"type":"Feature","geometry":{"type":"Point","coordinates":[-89.7399,43.4807]},"properties":{"country":"United States of America","city_station":"Baraboo","pm_2_5":10,"latitude":"43.4807","longitude":"-89.7399","iso2":"US","cartodb_id":307,"created_at":"2014-05-19T13:14:05Z","updated_at":"2014-05-30T01:06:11Z"}},{"type":"Feature","geometry":{"type":"Point","coordinates":[-80.7,28.3]},"properties":{"country":"United States of America","city_station":"Brevard County","pm_2_5":6,"latitude":"28.3","longitude":"-80.7","iso2":"US","cartodb_id":308,"created_at":"2014-05-19T13:14:05Z","updated_at":"2014-05-30T01:06:11Z"}},{"type":"Feature","geometry":{"type":"Point","coordinates":[0.2047,48.0004]},"properties":{"country":"France","city_station":"Le Mans","pm_2_5":16,"latitude":"48.0004","longitude":"0.2047","iso2":"FR","cartodb_id":309,"created_at":"2014-05-19T13:14:05Z","updated_at":"2014-05-30T01:06:11Z"}},{"type":"Feature","geometry":{"type":"Point","coordinates":[-83.4457,41.9505]},"properties":{"country":"United States of America","city_station":"Monroe-MI","pm_2_5":13,"latitude":"41.9505","longitude":"-83.4457","iso2":"US","cartodb_id":310,"created_at":"2014-05-19T13:14:05Z","updated_at":"2014-05-30T01:06:11Z"}},{"type":"Feature","geometry":{"type":"Point","coordinates":[-119.3,36.316667]},"properties":{"country":"United States of America","city_station":"Visalia","pm_2_5":15,"latitude":"36.316667","longitude":"-119.3","iso2":"US","cartodb_id":311,"created_at":"2014-05-19T13:14:05Z","updated_at":"2014-05-30T01:06:11Z"}},{"type":"Feature","geometry":{"type":"Point","coordinates":[113.2914,40.0936]},"properties":{"country":"China","city_station":"Datong","pm_2_5":34,"latitude":"40.0936","longitude":"113.2914","iso2":"CN","cartodb_id":312,"created_at":"2014-05-19T13:14:05Z","updated_at":"2014-05-30T01:06:11Z"}},{"type":"Feature","geometry":{"type":"Point","coordinates":[-75.5089,6.3463]},"properties":{"country":"Colombia","city_station":"Copacabana","pm_2_5":20,"latitude":"6.3463","longitude":"-75.5089","iso2":"CO","cartodb_id":313,"created_at":"2014-05-19T13:14:05Z","updated_at":"2014-05-30T01:06:11Z"}},{"type":"Feature","geometry":{"type":"Point","coordinates":[-114.050556,53.2275]},"properties":{"country":"Canada","city_station":"Thorsby","pm_2_5":6,"latitude":"53.2275","longitude":"-114.050556","iso2":"CA","cartodb_id":314,"created_at":"2014-05-19T13:14:05Z","updated_at":"2014-05-30T01:06:11Z"}},{"type":"Feature","geometry":{"type":"Point","coordinates":[8.2,44.9]},"properties":{"country":"Italy","city_station":"Asti","pm_2_5":26,"latitude":"44.9","longitude":"8.2","iso2":"IT","cartodb_id":315,"created_at":"2014-05-19T13:14:05Z","updated_at":"2014-05-30T01:06:11Z"}},{"type":"Feature","geometry":{"type":"Point","coordinates":[-8.611,41.1496]},"properties":{"country":"Portugal","city_station":"Porto","pm_2_5":7,"latitude":"41.1496","longitude":"-8.611","iso2":"PT","cartodb_id":316,"created_at":"2014-05-19T13:14:05Z","updated_at":"2014-05-30T01:06:11Z"}},{"type":"Feature","geometry":{"type":"Point","coordinates":[-78.5,-0.2167]},"properties":{"country":"Ecuador","city_station":"Quito","pm_2_5":18,"latitude":"-0.2167","longitude":"-78.5","iso2":"EC","cartodb_id":317,"created_at":"2014-05-19T13:14:05Z","updated_at":"2014-05-30T01:06:11Z"}},{"type":"Feature","geometry":{"type":"Point","coordinates":[-0.1364,38.5392]},"properties":{"country":"Spain","city_station":"Benidorm","pm_2_5":9,"latitude":"38.5392","longitude":"-0.1364","iso2":"ES","cartodb_id":318,"created_at":"2014-05-19T13:14:05Z","updated_at":"2014-05-30T01:06:11Z"}},{"type":"Feature","geometry":{"type":"Point","coordinates":[4.365,48.9575]},"properties":{"country":"France","city_station":"Chalons-en-Champagne","pm_2_5":18,"latitude":"48.9575","longitude":"4.365","iso2":"FR","cartodb_id":319,"created_at":"2014-05-19T13:14:05Z","updated_at":"2014-05-30T01:06:11Z"}},{"type":"Feature","geometry":{"type":"Point","coordinates":[34.953889,40.55]},"properties":{"country":"Turkey","city_station":"Corum","pm_2_5":50,"latitude":"40.55","longitude":"34.953889","iso2":"TR","cartodb_id":320,"created_at":"2014-05-19T13:14:05Z","updated_at":"2014-05-30T01:06:11Z"}},{"type":"Feature","geometry":{"type":"Point","coordinates":[-113.578056,37.095278]},"properties":{"country":"United States of America","city_station":"St. George","pm_2_5":7,"latitude":"37.095278","longitude":"-113.578056","iso2":"US","cartodb_id":321,"created_at":"2014-05-19T13:14:05Z","updated_at":"2014-05-30T01:06:11Z"}},{"type":"Feature","geometry":{"type":"Point","coordinates":[19.3833,54.1667]},"properties":{"country":"Poland","city_station":"Elblag","pm_2_5":18,"latitude":"54.1667","longitude":"19.3833","iso2":"PL","cartodb_id":322,"created_at":"2014-05-19T13:14:05Z","updated_at":"2014-05-30T01:06:11Z"}},{"type":"Feature","geometry":{"type":"Point","coordinates":[-93.3176,37.219]},"properties":{"country":"United States of America","city_station":"Springfield-MO","pm_2_5":10,"latitude":"37.219","longitude":"-93.3176","iso2":"US","cartodb_id":323,"created_at":"2014-05-19T13:14:05Z","updated_at":"2014-05-30T01:06:11Z"}},{"type":"Feature","geometry":{"type":"Point","coordinates":[-83.8095,34.3138]},"properties":{"country":"United States of America","city_station":"Gainesville-GA","pm_2_5":7,"latitude":"34.3138","longitude":"-83.8095","iso2":"US","cartodb_id":324,"created_at":"2014-05-19T13:14:05Z","updated_at":"2014-05-30T01:06:11Z"}},{"type":"Feature","geometry":{"type":"Point","coordinates":[-78.3333,44.3]},"properties":{"country":"Canada","city_station":"Peterborough","pm_2_5":7,"latitude":"44.3","longitude":"-78.3333","iso2":"CA","cartodb_id":325,"created_at":"2014-05-19T13:14:05Z","updated_at":"2014-05-30T01:06:11Z"}},{"type":"Feature","geometry":{"type":"Point","coordinates":[1.4917,48.4482]},"properties":{"country":"France","city_station":"Chartres","pm_2_5":15,"latitude":"48.4482","longitude":"1.4917","iso2":"FR","cartodb_id":326,"created_at":"2014-05-19T13:14:05Z","updated_at":"2014-05-30T01:06:11Z"}},{"type":"Feature","geometry":{"type":"Point","coordinates":[-72.866667,45.733333]},"properties":{"country":"Canada","city_station":"Saint-Simon","pm_2_5":7,"latitude":"45.733333","longitude":"-72.866667","iso2":"CA","cartodb_id":327,"created_at":"2014-05-19T13:14:05Z","updated_at":"2014-05-30T01:06:11Z"}},{"type":"Feature","geometry":{"type":"Point","coordinates":[-97.75,30.25]},"properties":{"country":"United States of America","city_station":"Austin","pm_2_5":10,"latitude":"30.25","longitude":"-97.75","iso2":"US","cartodb_id":328,"created_at":"2014-05-19T13:14:05Z","updated_at":"2014-05-30T01:06:11Z"}},{"type":"Feature","geometry":{"type":"Point","coordinates":[0.15,45.65]},"properties":{"country":"France","city_station":"Angouleme","pm_2_5":13,"latitude":"45.65","longitude":"0.15","iso2":"FR","cartodb_id":329,"created_at":"2014-05-19T13:14:05Z","updated_at":"2014-05-30T01:06:11Z"}},{"type":"Feature","geometry":{"type":"Point","coordinates":[9.935556,51.533889]},"properties":{"country":"Germany","city_station":"Gottingen","pm_2_5":12,"latitude":"51.533889","longitude":"9.935556","iso2":"DE","cartodb_id":330,"created_at":"2014-05-19T13:14:05Z","updated_at":"2014-05-30T01:06:11Z"}},{"type":"Feature","geometry":{"type":"Point","coordinates":[-77.3833,44.1667]},"properties":{"country":"Canada","city_station":"Belleville","pm_2_5":5,"latitude":"44.1667","longitude":"-77.3833","iso2":"CA","cartodb_id":331,"created_at":"2014-05-19T13:14:05Z","updated_at":"2014-05-30T01:06:11Z"}},{"type":"Feature","geometry":{"type":"Point","coordinates":[-21.905556,64.111111]},"properties":{"country":"Iceland","city_station":"Kopavogur","pm_2_5":5,"latitude":"64.111111","longitude":"-21.905556","iso2":"IS","cartodb_id":332,"created_at":"2014-05-19T13:14:05Z","updated_at":"2014-05-30T01:06:11Z"}},{"type":"Feature","geometry":{"type":"Point","coordinates":[-79.15,-0.25]},"properties":{"country":"Ecuador","city_station":"Santo Domingo","pm_2_5":33,"latitude":"-0.25","longitude":"-79.15","iso2":"EC","cartodb_id":333,"created_at":"2014-05-19T13:14:05Z","updated_at":"2014-05-30T01:06:11Z"}},{"type":"Feature","geometry":{"type":"Point","coordinates":[18.6,53.0333]},"properties":{"country":"Poland","city_station":"Torun","pm_2_5":23,"latitude":"53.0333","longitude":"18.6","iso2":"PL","cartodb_id":334,"created_at":"2014-05-19T13:14:05Z","updated_at":"2014-05-30T01:06:11Z"}},{"type":"Feature","geometry":{"type":"Point","coordinates":[116.2608,37.6906]},